{"type":"FeatureCollection","features":[{"type":"Feature","id":0,"geometry":{"type":"Point","coordinates":[87.610685403349578,27.519148743002404]},"properties":{"FID":0,"VDC_NAME":"Papung","DIST_NAME":"Taplejung"}},{"type":"Feature","id":1,"geometry":{"type":"Point","coordinates":[87.550714994202508,27.406749798564704]},"properties":{"FID":1,"VDC_NAME":"Thinglabu","DIST_NAME":"Taplejung"}},{"type":"Feature","id":2,"geometry":{"type":"Point","coordinates":[87.538907253848663,27.378086580257047]},"properties":{"FID":2,"VDC_NAME":"Phakumba","DIST_NAME":"Taplejung"}},{"type":"Feature","id":3,"geometry":{"type":"Point","coordinates":[87.531730245875849,27.340423541515236]},"properties":{"FID":3,"VDC_NAME":"Sangu","DIST_NAME":"Taplejung"}},{"type":"Feature","id":4,"geometry":{"type":"Point","coordinates":[87.644731255085958,27.286800759149344]},"properties":{"FID":4,"VDC_NAME":"Nidhuradin","DIST_NAME":"Taplejung"}},{"type":"Feature","id":5,"geometry":{"type":"Point","coordinates":[87.658606770424797,27.301505442491646]},"properties":{"FID":5,"VDC_NAME":"Phulbari","DIST_NAME":"Taplejung"}},{"type":"Feature","id":6,"geometry":{"type":"Point","coordinates":[87.627550230292513,27.342472566688059]},"properties":{"FID":6,"VDC_NAME":"Hangpang","DIST_NAME":"Taplejung"}},{"type":"Feature","id":7,"geometry":{"type":"Point","coordinates":[87.594732292107381,27.361501433419676]},"properties":{"FID":7,"VDC_NAME":"Change","DIST_NAME":"Taplejung"}},{"type":"Feature","id":8,"geometry":{"type":"Point","coordinates":[87.606937203646055,27.375803655783045]},"properties":{"FID":8,"VDC_NAME":"Santhakra","DIST_NAME":"Taplejung"}},{"type":"Feature","id":9,"geometry":{"type":"Point","coordinates":[87.619783124147432,27.383566201298777]},"properties":{"FID":9,"VDC_NAME":"Khamlung","DIST_NAME":"Taplejung"}},{"type":"Feature","id":10,"geometry":{"type":"Point","coordinates":[87.609704901216219,27.416453206703409]},"properties":{"FID":10,"VDC_NAME":"Lingtep","DIST_NAME":"Taplejung"}},{"type":"Feature","id":11,"geometry":{"type":"Point","coordinates":[87.668331214124521,27.351961872226752]},"properties":{"FID":11,"VDC_NAME":"Phungling","DIST_NAME":"Taplejung"}},{"type":"Feature","id":12,"geometry":{"type":"Point","coordinates":[87.689033762404108,27.377175265354253]},"properties":{"FID":12,"VDC_NAME":"Hangdeva","DIST_NAME":"Taplejung"}},{"type":"Feature","id":13,"geometry":{"type":"Point","coordinates":[87.708591981162954,27.404438837985197]},"properties":{"FID":13,"VDC_NAME":"Phurumbu","DIST_NAME":"Taplejung"}},{"type":"Feature","id":14,"geometry":{"type":"Point","coordinates":[87.704025190821369,27.329008123412223]},"properties":{"FID":14,"VDC_NAME":"Nankholyang","DIST_NAME":"Taplejung"}},{"type":"Feature","id":15,"geometry":{"type":"Point","coordinates":[87.763899573322078,27.351165400744208]},"properties":{"FID":15,"VDC_NAME":"Tiringe","DIST_NAME":"Taplejung"}},{"type":"Feature","id":16,"geometry":{"type":"Point","coordinates":[87.822517483069021,27.30957539123375]},"properties":{"FID":16,"VDC_NAME":"Sinam","DIST_NAME":"Taplejung"}},{"type":"Feature","id":17,"geometry":{"type":"Point","coordinates":[87.797120925972763,27.358093170129052]},"properties":{"FID":17,"VDC_NAME":"Sikaicha","DIST_NAME":"Taplejung"}},{"type":"Feature","id":18,"geometry":{"type":"Point","coordinates":[87.741374346005614,27.311329659536682]},"properties":{"FID":18,"VDC_NAME":"Thechambu","DIST_NAME":"Taplejung"}},{"type":"Feature","id":19,"geometry":{"type":"Point","coordinates":[87.862091302369095,27.373487760494356]},"properties":{"FID":19,"VDC_NAME":"Paidang","DIST_NAME":"Taplejung"}},{"type":"Feature","id":20,"geometry":{"type":"Point","coordinates":[87.893334406447025,27.452119459109781]},"properties":{"FID":20,"VDC_NAME":"Yamfudin","DIST_NAME":"Taplejung"}},{"type":"Feature","id":21,"geometry":{"type":"Point","coordinates":[87.87521045295972,27.421260898846811]},"properties":{"FID":21,"VDC_NAME":"Mamangkhe","DIST_NAME":"Taplejung"}},{"type":"Feature","id":22,"geometry":{"type":"Point","coordinates":[87.87627320573614,27.352057250270377]},"properties":{"FID":22,"VDC_NAME":"Mehele","DIST_NAME":"Taplejung"}},{"type":"Feature","id":23,"geometry":{"type":"Point","coordinates":[87.915024790959535,27.368944434652576]},"properties":{"FID":23,"VDC_NAME":"Surunkhim","DIST_NAME":"Taplejung"}},{"type":"Feature","id":24,"geometry":{"type":"Point","coordinates":[87.887638467142835,27.381542460066385]},"properties":{"FID":24,"VDC_NAME":"Khewang","DIST_NAME":"Taplejung"}},{"type":"Feature","id":25,"geometry":{"type":"Point","coordinates":[87.858675702781056,27.31832268610566]},"properties":{"FID":25,"VDC_NAME":"Limbudin","DIST_NAME":"Taplejung"}},{"type":"Feature","id":26,"geometry":{"type":"Point","coordinates":[87.889761883777169,27.303033738917406]},"properties":{"FID":26,"VDC_NAME":"Ankhop","DIST_NAME":"Taplejung"}},{"type":"Feature","id":27,"geometry":{"type":"Point","coordinates":[87.861147761245491,27.304955378150396]},"properties":{"FID":27,"VDC_NAME":"Sawalakhu","DIST_NAME":"Taplejung"}},{"type":"Feature","id":28,"geometry":{"type":"Point","coordinates":[87.938164407139482,27.29018835984391]},"properties":{"FID":28,"VDC_NAME":"Sadewa","DIST_NAME":"Taplejung"}},{"type":"Feature","id":29,"geometry":{"type":"Point","coordinates":[87.780440743886004,27.488842749562082]},"properties":{"FID":29,"VDC_NAME":"Tapethok","DIST_NAME":"Taplejung"}},{"type":"Feature","id":30,"geometry":{"type":"Point","coordinates":[87.733846589725943,27.489421238798172]},"properties":{"FID":30,"VDC_NAME":"Ekhabu","DIST_NAME":"Taplejung"}},{"type":"Feature","id":31,"geometry":{"type":"Point","coordinates":[87.625480020058887,27.427036541090217]},"properties":{"FID":31,"VDC_NAME":"Liwang","DIST_NAME":"Taplejung"}},{"type":"Feature","id":32,"geometry":{"type":"Point","coordinates":[87.606202652147658,27.440275601115161]},"properties":{"FID":32,"VDC_NAME":"Thukima","DIST_NAME":"Taplejung"}},{"type":"Feature","id":33,"geometry":{"type":"Point","coordinates":[87.605812492333882,27.472405723189581]},"properties":{"FID":33,"VDC_NAME":"Nalbu","DIST_NAME":"Taplejung"}},{"type":"Feature","id":34,"geometry":{"type":"Point","coordinates":[87.775564657310611,27.313825184132497]},"properties":{"FID":34,"VDC_NAME":"Dummrise","DIST_NAME":"Taplejung"}},{"type":"Feature","id":35,"geometry":{"type":"Point","coordinates":[87.771812293304436,27.290698701042515]},"properties":{"FID":35,"VDC_NAME":"Chaksibote","DIST_NAME":"Taplejung"}},{"type":"Feature","id":36,"geometry":{"type":"Point","coordinates":[87.812807285531051,27.288453181507975]},"properties":{"FID":36,"VDC_NAME":"Thumbedin","DIST_NAME":"Taplejung"}},{"type":"Feature","id":37,"geometry":{"type":"Point","coordinates":[87.686827224436115,27.433103041387881]},"properties":{"FID":37,"VDC_NAME":"Sawadin","DIST_NAME":"Taplejung"}},{"type":"Feature","id":38,"geometry":{"type":"Point","coordinates":[87.630416605980599,27.397376330299664]},"properties":{"FID":38,"VDC_NAME":"Khokling","DIST_NAME":"Taplejung"}},{"type":"Feature","id":39,"geometry":{"type":"Point","coordinates":[87.575913402090805,27.35226448005443]},"properties":{"FID":39,"VDC_NAME":"Dhungesaghu","DIST_NAME":"Taplejung"}},{"type":"Feature","id":40,"geometry":{"type":"Point","coordinates":[87.688703110439633,27.453136033407816]},"properties":{"FID":40,"VDC_NAME":"Khejenim","DIST_NAME":"Taplejung"}},{"type":"Feature","id":41,"geometry":{"type":"Point","coordinates":[87.623876102626241,27.483557458025928]},"properties":{"FID":41,"VDC_NAME":"Sawa(Sanwa)","DIST_NAME":"Taplejung"}},{"type":"Feature","id":42,"geometry":{"type":"Point","coordinates":[87.669376807126923,27.337322443189237]},"properties":{"FID":42,"VDC_NAME":"Dokhu","DIST_NAME":"Taplejung"}},{"type":"Feature","id":43,"geometry":{"type":"Point","coordinates":[87.850359213072807,27.363150558097743]},"properties":{"FID":43,"VDC_NAME":"Tellok","DIST_NAME":"Taplejung"}},{"type":"Feature","id":44,"geometry":{"type":"Point","coordinates":[87.836758876296528,27.332458046807687]},"properties":{"FID":44,"VDC_NAME":"Ambegudin","DIST_NAME":"Taplejung"}},{"type":"Feature","id":45,"geometry":{"type":"Point","coordinates":[87.794521303752163,27.529702404788679]},"properties":{"FID":45,"VDC_NAME":"Lelep","DIST_NAME":"Taplejung"}},{"type":"Feature","id":46,"geometry":{"type":"Point","coordinates":[87.71317529937113,27.44299245883991]},"properties":{"FID":46,"VDC_NAME":"Linkhim","DIST_NAME":"Taplejung"}},{"type":"Feature","id":47,"geometry":{"type":"Point","coordinates":[87.774552433878966,27.683831886266148]},"properties":{"FID":47,"VDC_NAME":"Olangchung","DIST_NAME":"Taplejung"}},{"type":"Feature","id":48,"geometry":{"type":"Point","coordinates":[87.716027172209635,27.255280963264397]},"properties":{"FID":48,"VDC_NAME":"Ambarpur","DIST_NAME":"Panchthar"}},{"type":"Feature","id":49,"geometry":{"type":"Point","coordinates":[87.875620269718354,27.262481124059605]},"properties":{"FID":49,"VDC_NAME":"Oyam","DIST_NAME":"Panchthar"}},{"type":"Feature","id":50,"geometry":{"type":"Point","coordinates":[87.962445910695919,27.279659528589775]},"properties":{"FID":50,"VDC_NAME":"Falaicha","DIST_NAME":"Panchthar"}},{"type":"Feature","id":51,"geometry":{"type":"Point","coordinates":[87.756344042751607,27.229638222351866]},"properties":{"FID":51,"VDC_NAME":"Panchami","DIST_NAME":"Panchthar"}},{"type":"Feature","id":52,"geometry":{"type":"Point","coordinates":[87.805822155652834,27.216949252963389]},"properties":{"FID":52,"VDC_NAME":"Sumang","DIST_NAME":"Panchthar"}},{"type":"Feature","id":53,"geometry":{"type":"Point","coordinates":[87.866880343729235,27.198790830252165]},"properties":{"FID":53,"VDC_NAME":"Khunga","DIST_NAME":"Panchthar"}},{"type":"Feature","id":54,"geometry":{"type":"Point","coordinates":[87.944110230319609,27.194463677124759]},"properties":{"FID":54,"VDC_NAME":"Memeng","DIST_NAME":"Panchthar"}},{"type":"Feature","id":55,"geometry":{"type":"Point","coordinates":[87.861655463897478,27.182491982524482]},"properties":{"FID":55,"VDC_NAME":"Luwamfu","DIST_NAME":"Panchthar"}},{"type":"Feature","id":56,"geometry":{"type":"Point","coordinates":[87.908486367595401,27.174712005273079]},"properties":{"FID":56,"VDC_NAME":"Parangbung","DIST_NAME":"Panchthar"}},{"type":"Feature","id":57,"geometry":{"type":"Point","coordinates":[87.768124300981697,27.170304480445679]},"properties":{"FID":57,"VDC_NAME":"Bharpa","DIST_NAME":"Panchthar"}},{"type":"Feature","id":58,"geometry":{"type":"Point","coordinates":[87.835086404796755,27.165237053559906]},"properties":{"FID":58,"VDC_NAME":"Yangnam","DIST_NAME":"Panchthar"}},{"type":"Feature","id":59,"geometry":{"type":"Point","coordinates":[87.761038516816939,27.141671893185219]},"properties":{"FID":59,"VDC_NAME":"Phidim","DIST_NAME":"Panchthar"}},{"type":"Feature","id":60,"geometry":{"type":"Point","coordinates":[87.833126644170648,27.143890007552272]},"properties":{"FID":60,"VDC_NAME":"Nangeen","DIST_NAME":"Panchthar"}},{"type":"Feature","id":61,"geometry":{"type":"Point","coordinates":[87.904886856151109,27.143211120857643]},"properties":{"FID":61,"VDC_NAME":"Sidin","DIST_NAME":"Panchthar"}},{"type":"Feature","id":62,"geometry":{"type":"Point","coordinates":[87.804459776511408,27.126686515828965]},"properties":{"FID":62,"VDC_NAME":"Ranitar","DIST_NAME":"Panchthar"}},{"type":"Feature","id":63,"geometry":{"type":"Point","coordinates":[87.735903807036209,27.11813287113938]},"properties":{"FID":63,"VDC_NAME":"Chokmagu","DIST_NAME":"Panchthar"}},{"type":"Feature","id":64,"geometry":{"type":"Point","coordinates":[87.775426367155433,27.120548435408352]},"properties":{"FID":64,"VDC_NAME":"Lalikharka","DIST_NAME":"Panchthar"}},{"type":"Feature","id":65,"geometry":{"type":"Point","coordinates":[87.86534252481664,27.108232469672373]},"properties":{"FID":65,"VDC_NAME":"Lungrupa","DIST_NAME":"Panchthar"}},{"type":"Feature","id":66,"geometry":{"type":"Point","coordinates":[87.644227212845124,27.080438899879141]},"properties":{"FID":66,"VDC_NAME":"Rani Gaun","DIST_NAME":"Panchthar"}},{"type":"Feature","id":67,"geometry":{"type":"Point","coordinates":[87.654022530045324,27.066436700548479]},"properties":{"FID":67,"VDC_NAME":"Yasok","DIST_NAME":"Panchthar"}},{"type":"Feature","id":68,"geometry":{"type":"Point","coordinates":[87.743030357471355,27.070049410169702]},"properties":{"FID":68,"VDC_NAME":"Nawamidanda","DIST_NAME":"Panchthar"}},{"type":"Feature","id":69,"geometry":{"type":"Point","coordinates":[87.726607520372568,27.038708379457546]},"properties":{"FID":69,"VDC_NAME":"Phaktep","DIST_NAME":"Panchthar"}},{"type":"Feature","id":70,"geometry":{"type":"Point","coordinates":[87.779105771553645,27.046687521116212]},"properties":{"FID":70,"VDC_NAME":"Pouwa Sartap","DIST_NAME":"Panchthar"}},{"type":"Feature","id":71,"geometry":{"type":"Point","coordinates":[87.762796005121857,27.055072917165205]},"properties":{"FID":71,"VDC_NAME":"Embung","DIST_NAME":"Panchthar"}},{"type":"Feature","id":72,"geometry":{"type":"Point","coordinates":[87.742406172169126,27.030679610280401]},"properties":{"FID":72,"VDC_NAME":"Chilingdin","DIST_NAME":"Panchthar"}},{"type":"Feature","id":73,"geometry":{"type":"Point","coordinates":[87.643260269389543,27.025687741100342]},"properties":{"FID":73,"VDC_NAME":"Mangjabung","DIST_NAME":"Panchthar"}},{"type":"Feature","id":74,"geometry":{"type":"Point","coordinates":[87.533511933582531,26.990936061456864]},"properties":{"FID":74,"VDC_NAME":"Mauwa","DIST_NAME":"Panchthar"}},{"type":"Feature","id":75,"geometry":{"type":"Point","coordinates":[87.617851294859406,26.991394164642827]},"properties":{"FID":75,"VDC_NAME":"Olane","DIST_NAME":"Panchthar"}},{"type":"Feature","id":76,"geometry":{"type":"Point","coordinates":[87.668594981394961,27.000399310732291]},"properties":{"FID":76,"VDC_NAME":"Sarangdanda","DIST_NAME":"Panchthar"}},{"type":"Feature","id":77,"geometry":{"type":"Point","coordinates":[87.624696352354476,26.920411258764886]},"properties":{"FID":77,"VDC_NAME":"Aarubote","DIST_NAME":"Panchthar"}},{"type":"Feature","id":78,"geometry":{"type":"Point","coordinates":[87.569877658034045,26.954382254829568]},"properties":{"FID":78,"VDC_NAME":"Hangum","DIST_NAME":"Panchthar"}},{"type":"Feature","id":79,"geometry":{"type":"Point","coordinates":[87.543180178037176,26.899359576915231]},"properties":{"FID":79,"VDC_NAME":"Durdimba","DIST_NAME":"Panchthar"}},{"type":"Feature","id":80,"geometry":{"type":"Point","coordinates":[87.630708898342334,26.87944914563468]},"properties":{"FID":80,"VDC_NAME":"Khandrung","DIST_NAME":"Panchthar"}},{"type":"Feature","id":81,"geometry":{"type":"Point","coordinates":[87.667408577298374,26.893311479255203]},"properties":{"FID":81,"VDC_NAME":"Kurumba","DIST_NAME":"Panchthar"}},{"type":"Feature","id":82,"geometry":{"type":"Point","coordinates":[87.590239627464598,26.900398352419586]},"properties":{"FID":82,"VDC_NAME":"Linba","DIST_NAME":"Panchthar"}},{"type":"Feature","id":83,"geometry":{"type":"Point","coordinates":[87.592639440641392,26.993027927439869]},"properties":{"FID":83,"VDC_NAME":"Aangna","DIST_NAME":"Panchthar"}},{"type":"Feature","id":84,"geometry":{"type":"Point","coordinates":[87.614454115550529,27.066569124439013]},"properties":{"FID":84,"VDC_NAME":"Syangrumba","DIST_NAME":"Panchthar"}},{"type":"Feature","id":85,"geometry":{"type":"Point","coordinates":[87.784968124643399,27.159857447485706]},"properties":{"FID":85,"VDC_NAME":"Salleri","DIST_NAME":"Panchthar"}},{"type":"Feature","id":86,"geometry":{"type":"Point","coordinates":[87.878422122936456,27.197688802143716]},"properties":{"FID":86,"VDC_NAME":"Ekteen","DIST_NAME":"Panchthar"}},{"type":"Feature","id":87,"geometry":{"type":"Point","coordinates":[87.797803392646699,27.255687533884554]},"properties":{"FID":87,"VDC_NAME":"Nagi","DIST_NAME":"Panchthar"}},{"type":"Feature","id":88,"geometry":{"type":"Point","coordinates":[87.687050474289208,26.928445966976199]},"properties":{"FID":88,"VDC_NAME":"Rabi","DIST_NAME":"Panchthar"}},{"type":"Feature","id":89,"geometry":{"type":"Point","coordinates":[87.756825188955929,26.990274623680477]},"properties":{"FID":89,"VDC_NAME":"Phakphok","DIST_NAME":"Ilam"}},{"type":"Feature","id":90,"geometry":{"type":"Point","coordinates":[87.735360003236735,26.958420423425366]},"properties":{"FID":90,"VDC_NAME":"Amchok","DIST_NAME":"Ilam"}},{"type":"Feature","id":91,"geometry":{"type":"Point","coordinates":[87.713795004650592,26.945502548727291]},"properties":{"FID":91,"VDC_NAME":"Phuyatappa","DIST_NAME":"Ilam"}},{"type":"Feature","id":92,"geometry":{"type":"Point","coordinates":[87.775195833102259,26.946145031619551]},"properties":{"FID":92,"VDC_NAME":"Ektappa","DIST_NAME":"Ilam"}},{"type":"Feature","id":93,"geometry":{"type":"Point","coordinates":[87.725993670081095,26.919456608780024]},"properties":{"FID":93,"VDC_NAME":"Lumbe (Lumbde)","DIST_NAME":"Ilam"}},{"type":"Feature","id":94,"geometry":{"type":"Point","coordinates":[87.704489794035908,26.903666532409375]},"properties":{"FID":94,"VDC_NAME":"Gajurmukhi","DIST_NAME":"Ilam"}},{"type":"Feature","id":95,"geometry":{"type":"Point","coordinates":[87.690142497762224,26.853557057725595]},"properties":{"FID":95,"VDC_NAME":"Bajho","DIST_NAME":"Ilam"}},{"type":"Feature","id":96,"geometry":{"type":"Point","coordinates":[87.663619062467774,26.840160349698579]},"properties":{"FID":96,"VDC_NAME":"Sakfara","DIST_NAME":"Ilam"}},{"type":"Feature","id":97,"geometry":{"type":"Point","coordinates":[87.791840623816881,26.730419304095619]},"properties":{"FID":97,"VDC_NAME":"Mahamai","DIST_NAME":"Ilam"}},{"type":"Feature","id":98,"geometry":{"type":"Point","coordinates":[87.897347285537364,26.775772868433307]},"properties":{"FID":98,"VDC_NAME":"Danabari","DIST_NAME":"Ilam"}},{"type":"Feature","id":99,"geometry":{"type":"Point","coordinates":[87.910763789584337,26.829704310071406]},"properties":{"FID":99,"VDC_NAME":"Chisapani","DIST_NAME":"Ilam"}},{"type":"Feature","id":100,"geometry":{"type":"Point","coordinates":[87.879486929925861,26.843957677474691]},"properties":{"FID":100,"VDC_NAME":"Soyak","DIST_NAME":"Ilam"}},{"type":"Feature","id":101,"geometry":{"type":"Point","coordinates":[87.848072755059832,26.858386500954566]},"properties":{"FID":101,"VDC_NAME":"Siddhithumka","DIST_NAME":"Ilam"}},{"type":"Feature","id":102,"geometry":{"type":"Point","coordinates":[87.814743673289286,26.878256439577171]},"properties":{"FID":102,"VDC_NAME":"Jitpur","DIST_NAME":"Ilam"}},{"type":"Feature","id":103,"geometry":{"type":"Point","coordinates":[87.778164370036905,26.913833773262866]},"properties":{"FID":103,"VDC_NAME":"Ghuseni","DIST_NAME":"Ilam"}},{"type":"Feature","id":104,"geometry":{"type":"Point","coordinates":[87.829494719593015,26.944472014620885]},"properties":{"FID":104,"VDC_NAME":"Mangalbare","DIST_NAME":"Ilam"}},{"type":"Feature","id":105,"geometry":{"type":"Point","coordinates":[87.881054815065113,26.948810337376983]},"properties":{"FID":105,"VDC_NAME":"Shantidanda","DIST_NAME":"Ilam"}},{"type":"Feature","id":106,"geometry":{"type":"Point","coordinates":[87.894159568639679,26.972553104619749]},"properties":{"FID":106,"VDC_NAME":"Sakhejung","DIST_NAME":"Ilam"}},{"type":"Feature","id":107,"geometry":{"type":"Point","coordinates":[87.753243724761887,26.875960435666627]},"properties":{"FID":107,"VDC_NAME":"Emang","DIST_NAME":"Ilam"}},{"type":"Feature","id":108,"geometry":{"type":"Point","coordinates":[87.980684572906512,26.858947016832701]},"properties":{"FID":108,"VDC_NAME":"Laxmipura","DIST_NAME":"Ilam"}},{"type":"Feature","id":109,"geometry":{"type":"Point","coordinates":[88.023097356976905,26.889405752758478]},"properties":{"FID":109,"VDC_NAME":"Panchakanya","DIST_NAME":"Ilam"}},{"type":"Feature","id":110,"geometry":{"type":"Point","coordinates":[88.07068298525661,26.896429274740115]},"properties":{"FID":110,"VDC_NAME":"Phikal Bazar","DIST_NAME":"Ilam"}},{"type":"Feature","id":111,"geometry":{"type":"Point","coordinates":[88.086070709975218,26.859215002062626]},"properties":{"FID":111,"VDC_NAME":"Kanyam","DIST_NAME":"Ilam"}},{"type":"Feature","id":112,"geometry":{"type":"Point","coordinates":[88.161454139339071,26.867519004636392]},"properties":{"FID":112,"VDC_NAME":"Samalpung","DIST_NAME":"Ilam"}},{"type":"Feature","id":113,"geometry":{"type":"Point","coordinates":[88.122190509375912,26.877034725829958]},"properties":{"FID":113,"VDC_NAME":"Sri Antu","DIST_NAME":"Ilam"}},{"type":"Feature","id":114,"geometry":{"type":"Point","coordinates":[88.107729769465152,26.798453013423114]},"properties":{"FID":114,"VDC_NAME":"Erotar","DIST_NAME":"Ilam"}},{"type":"Feature","id":115,"geometry":{"type":"Point","coordinates":[88.064903216091693,26.821730813231511]},"properties":{"FID":115,"VDC_NAME":"Kolbung","DIST_NAME":"Ilam"}},{"type":"Feature","id":116,"geometry":{"type":"Point","coordinates":[88.016225858460245,26.840179486311058]},"properties":{"FID":116,"VDC_NAME":"Shantipur","DIST_NAME":"Ilam"}},{"type":"Feature","id":117,"geometry":{"type":"Point","coordinates":[88.02012768423117,26.954716853859338]},"properties":{"FID":117,"VDC_NAME":"Naya Bazar","DIST_NAME":"Ilam"}},{"type":"Feature","id":118,"geometry":{"type":"Point","coordinates":[88.045979562471416,26.97566978022661]},"properties":{"FID":118,"VDC_NAME":"Jogmai","DIST_NAME":"Ilam"}},{"type":"Feature","id":119,"geometry":{"type":"Point","coordinates":[87.966437215431881,27.010237030351675]},"properties":{"FID":119,"VDC_NAME":"Jamuna","DIST_NAME":"Ilam"}},{"type":"Feature","id":120,"geometry":{"type":"Point","coordinates":[87.977171234434081,26.984450425470584]},"properties":{"FID":120,"VDC_NAME":"Pyang","DIST_NAME":"Ilam"}},{"type":"Feature","id":121,"geometry":{"type":"Point","coordinates":[87.921322882467393,27.012352754540018]},"properties":{"FID":121,"VDC_NAME":"Maipokhari","DIST_NAME":"Ilam"}},{"type":"Feature","id":122,"geometry":{"type":"Point","coordinates":[87.956458479267781,27.033885712880362]},"properties":{"FID":122,"VDC_NAME":"Mabu","DIST_NAME":"Ilam"}},{"type":"Feature","id":123,"geometry":{"type":"Point","coordinates":[87.942291251614733,27.072358741216306]},"properties":{"FID":123,"VDC_NAME":"Maimajhuwa","DIST_NAME":"Ilam"}},{"type":"Feature","id":124,"geometry":{"type":"Point","coordinates":[87.885416153945698,27.010263414339988]},"properties":{"FID":124,"VDC_NAME":"Puwamajwa","DIST_NAME":"Ilam"}},{"type":"Feature","id":125,"geometry":{"type":"Point","coordinates":[87.813747410086307,27.012826600589563]},"properties":{"FID":125,"VDC_NAME":"Chameta","DIST_NAME":"Ilam"}},{"type":"Feature","id":126,"geometry":{"type":"Point","coordinates":[87.949564493989158,26.973300328271762]},"properties":{"FID":126,"VDC_NAME":"Sumbek","DIST_NAME":"Ilam"}},{"type":"Feature","id":127,"geometry":{"type":"Point","coordinates":[87.931607888842507,26.955418172212944]},"properties":{"FID":127,"VDC_NAME":"Barbote","DIST_NAME":"Ilam"}},{"type":"Feature","id":128,"geometry":{"type":"Point","coordinates":[87.968453616637021,26.936889078695799]},"properties":{"FID":128,"VDC_NAME":"Soyang","DIST_NAME":"Ilam"}},{"type":"Feature","id":129,"geometry":{"type":"Point","coordinates":[87.973382199109494,26.91795097431725]},"properties":{"FID":129,"VDC_NAME":"Namsaling","DIST_NAME":"Ilam"}},{"type":"Feature","id":130,"geometry":{"type":"Point","coordinates":[87.893612703316307,26.90271428432078]},"properties":{"FID":130,"VDC_NAME":"Sangrumba","DIST_NAME":"Ilam"}},{"type":"Feature","id":131,"geometry":{"type":"Point","coordinates":[88.074304461610097,26.955073078014891]},"properties":{"FID":131,"VDC_NAME":"Gorkhe","DIST_NAME":"Ilam"}},{"type":"Feature","id":132,"geometry":{"type":"Point","coordinates":[88.113415450219122,26.947575145471433]},"properties":{"FID":132,"VDC_NAME":"Pashupatinagar","DIST_NAME":"Ilam"}},{"type":"Feature","id":133,"geometry":{"type":"Point","coordinates":[87.926559441772326,26.910139814005447]},"properties":{"FID":133,"VDC_NAME":"Ilam N.P.","DIST_NAME":"Ilam"}},{"type":"Feature","id":134,"geometry":{"type":"Point","coordinates":[87.990585600250824,26.877061629602338]},"properties":{"FID":134,"VDC_NAME":"Goduk","DIST_NAME":"Ilam"}},{"type":"Feature","id":135,"geometry":{"type":"Point","coordinates":[88.142720848157467,26.808178657093265]},"properties":{"FID":135,"VDC_NAME":"Jirmale","DIST_NAME":"Ilam"}},{"type":"Feature","id":136,"geometry":{"type":"Point","coordinates":[87.84056728185567,27.279198436442186]},"properties":{"FID":136,"VDC_NAME":"Tharpu","DIST_NAME":"Panchthar"}},{"type":"Feature","id":137,"geometry":{"type":"Point","coordinates":[87.704726697182991,26.664058725786731]},"properties":{"FID":137,"VDC_NAME":"Damak N.P.","DIST_NAME":"Jhapa"}},{"type":"Feature","id":138,"geometry":{"type":"Point","coordinates":[87.719152249599233,26.65575146333066]},"properties":{"FID":138,"VDC_NAME":"Lakhanpur","DIST_NAME":"Jhapa"}},{"type":"Feature","id":139,"geometry":{"type":"Point","coordinates":[87.777151561348262,26.634745501938312]},"properties":{"FID":139,"VDC_NAME":"Dharmpur","DIST_NAME":"Jhapa"}},{"type":"Feature","id":140,"geometry":{"type":"Point","coordinates":[87.821547981802212,26.658096239662882]},"properties":{"FID":140,"VDC_NAME":"Satasidham","DIST_NAME":"Jhapa"}},{"type":"Feature","id":141,"geometry":{"type":"Point","coordinates":[87.733572108552323,26.589452746040649]},"properties":{"FID":141,"VDC_NAME":"Topgachchi","DIST_NAME":"Jhapa"}},{"type":"Feature","id":142,"geometry":{"type":"Point","coordinates":[87.721047097066446,26.565509739454569]},"properties":{"FID":142,"VDC_NAME":"Gourandaha","DIST_NAME":"Jhapa"}},{"type":"Feature","id":143,"geometry":{"type":"Point","coordinates":[87.667335905750861,26.557456205288418]},"properties":{"FID":143,"VDC_NAME":"Maharanijhora","DIST_NAME":"Jhapa"}},{"type":"Feature","id":144,"geometry":{"type":"Point","coordinates":[87.652338987090673,26.54280870256963]},"properties":{"FID":144,"VDC_NAME":"Kohabara","DIST_NAME":"Jhapa"}},{"type":"Feature","id":145,"geometry":{"type":"Point","coordinates":[87.715960655141146,26.514595668601885]},"properties":{"FID":145,"VDC_NAME":"Juropani","DIST_NAME":"Jhapa"}},{"type":"Feature","id":146,"geometry":{"type":"Point","coordinates":[87.725489760855794,26.476824328509451]},"properties":{"FID":146,"VDC_NAME":"Gauriganj","DIST_NAME":"Jhapa"}},{"type":"Feature","id":147,"geometry":{"type":"Point","coordinates":[87.696922014553763,26.459937437173892]},"properties":{"FID":147,"VDC_NAME":"Khajurgachhi","DIST_NAME":"Jhapa"}},{"type":"Feature","id":148,"geometry":{"type":"Point","coordinates":[87.752029908146142,26.446865230610058]},"properties":{"FID":148,"VDC_NAME":"Korabari","DIST_NAME":"Jhapa"}},{"type":"Feature","id":149,"geometry":{"type":"Point","coordinates":[87.843577429154152,26.46940477657148]},"properties":{"FID":149,"VDC_NAME":"Kumarkhod","DIST_NAME":"Jhapa"}},{"type":"Feature","id":150,"geometry":{"type":"Point","coordinates":[87.935460708714913,26.488786059376935]},"properties":{"FID":150,"VDC_NAME":"Rajghadh","DIST_NAME":"Jhapa"}},{"type":"Feature","id":151,"geometry":{"type":"Point","coordinates":[87.761173834081319,26.522523101595141]},"properties":{"FID":151,"VDC_NAME":"Baigundhara","DIST_NAME":"Jhapa"}},{"type":"Feature","id":152,"geometry":{"type":"Point","coordinates":[87.794891659132134,26.511731306487263]},"properties":{"FID":152,"VDC_NAME":"Mahabhara","DIST_NAME":"Jhapa"}},{"type":"Feature","id":153,"geometry":{"type":"Point","coordinates":[87.795378877156281,26.541748343701329]},"properties":{"FID":153,"VDC_NAME":"Panchganchi","DIST_NAME":"Jhapa"}},{"type":"Feature","id":154,"geometry":{"type":"Point","coordinates":[87.841094897962193,26.568654090920177]},"properties":{"FID":154,"VDC_NAME":"Shivaganj","DIST_NAME":"Jhapa"}},{"type":"Feature","id":155,"geometry":{"type":"Point","coordinates":[87.849451035348864,26.476980233785184]},"properties":{"FID":155,"VDC_NAME":"Taganduba(Jhapa)","DIST_NAME":"Jhapa"}},{"type":"Feature","id":156,"geometry":{"type":"Point","coordinates":[87.897874574844536,26.520852285641638]},"properties":{"FID":156,"VDC_NAME":"Sharanamati","DIST_NAME":"Jhapa"}},{"type":"Feature","id":157,"geometry":{"type":"Point","coordinates":[87.919904947199029,26.53311792310501]},"properties":{"FID":157,"VDC_NAME":"Chakchaki","DIST_NAME":"Jhapa"}},{"type":"Feature","id":158,"geometry":{"type":"Point","coordinates":[87.942942382118019,26.541923973051496]},"properties":{"FID":158,"VDC_NAME":"Golchhap","DIST_NAME":"Jhapa"}},{"type":"Feature","id":159,"geometry":{"type":"Point","coordinates":[87.974199216184275,26.442173836322979]},"properties":{"FID":159,"VDC_NAME":"Pathariya","DIST_NAME":"Jhapa"}},{"type":"Feature","id":160,"geometry":{"type":"Point","coordinates":[87.942625772600934,26.428500445051327]},"properties":{"FID":160,"VDC_NAME":"Gherabari","DIST_NAME":"Jhapa"}},{"type":"Feature","id":161,"geometry":{"type":"Point","coordinates":[87.997154793976165,26.389389563232612]},"properties":{"FID":161,"VDC_NAME":"Kechana","DIST_NAME":"Jhapa"}},{"type":"Feature","id":162,"geometry":{"type":"Point","coordinates":[88.049721255636825,26.412423940512326]},"properties":{"FID":162,"VDC_NAME":"Pathabhari","DIST_NAME":"Jhapa"}},{"type":"Feature","id":163,"geometry":{"type":"Point","coordinates":[88.025888974356633,26.448232421740329]},"properties":{"FID":163,"VDC_NAME":"Baniyani","DIST_NAME":"Jhapa"}},{"type":"Feature","id":164,"geometry":{"type":"Point","coordinates":[88.065745977970266,26.487937077158222]},"properties":{"FID":164,"VDC_NAME":"Prithivinagar","DIST_NAME":"Jhapa"}},{"type":"Feature","id":165,"geometry":{"type":"Point","coordinates":[88.081612495113802,26.503797577491582]},"properties":{"FID":165,"VDC_NAME":"Maheshpur","DIST_NAME":"Jhapa"}},{"type":"Feature","id":166,"geometry":{"type":"Point","coordinates":[88.083762248498147,26.547071442763524]},"properties":{"FID":166,"VDC_NAME":"Bhadrapur N.P.","DIST_NAME":"Jhapa"}},{"type":"Feature","id":167,"geometry":{"type":"Point","coordinates":[88.057435575667967,26.579959962933003]},"properties":{"FID":167,"VDC_NAME":"Chandragadhi","DIST_NAME":"Jhapa"}},{"type":"Feature","id":168,"geometry":{"type":"Point","coordinates":[88.001359951012262,26.560493811551112]},"properties":{"FID":168,"VDC_NAME":"Haldibari","DIST_NAME":"Jhapa"}},{"type":"Feature","id":169,"geometry":{"type":"Point","coordinates":[88.005935231619787,26.612662800704982]},"properties":{"FID":169,"VDC_NAME":"Garamani","DIST_NAME":"Jhapa"}},{"type":"Feature","id":170,"geometry":{"type":"Point","coordinates":[87.994118340051045,26.628122039513187]},"properties":{"FID":170,"VDC_NAME":"Anarmani","DIST_NAME":"Jhapa"}},{"type":"Feature","id":171,"geometry":{"type":"Point","coordinates":[88.150820025425503,26.64746124891758]},"properties":{"FID":171,"VDC_NAME":"Kakadvidta","DIST_NAME":"Jhapa"}},{"type":"Feature","id":172,"geometry":{"type":"Point","coordinates":[88.09531514640264,26.66901653283162]},"properties":{"FID":172,"VDC_NAME":"Dhulabari","DIST_NAME":"Jhapa"}},{"type":"Feature","id":173,"geometry":{"type":"Point","coordinates":[88.079829256772257,26.676799291197199]},"properties":{"FID":173,"VDC_NAME":"Dhaijan","DIST_NAME":"Jhapa"}},{"type":"Feature","id":174,"geometry":{"type":"Point","coordinates":[88.038504747716331,26.722230882452266]},"properties":{"FID":174,"VDC_NAME":"Budhabare","DIST_NAME":"Jhapa"}},{"type":"Feature","id":175,"geometry":{"type":"Point","coordinates":[88.07681351443216,26.751484175229393]},"properties":{"FID":175,"VDC_NAME":"Shantinagar","DIST_NAME":"Jhapa"}},{"type":"Feature","id":176,"geometry":{"type":"Point","coordinates":[88.171475191739376,26.721446855188901]},"properties":{"FID":176,"VDC_NAME":"Bahundangi","DIST_NAME":"Jhapa"}},{"type":"Feature","id":177,"geometry":{"type":"Point","coordinates":[87.993551865129859,26.686727599218273]},"properties":{"FID":177,"VDC_NAME":"Sanischare","DIST_NAME":"Jhapa"}},{"type":"Feature","id":178,"geometry":{"type":"Point","coordinates":[87.985587674255271,26.69133320942808]},"properties":{"FID":178,"VDC_NAME":"Arjundhara","DIST_NAME":"Jhapa"}},{"type":"Feature","id":179,"geometry":{"type":"Point","coordinates":[87.961038439429103,26.723569514622568]},"properties":{"FID":179,"VDC_NAME":"Khudnabari","DIST_NAME":"Jhapa"}},{"type":"Feature","id":180,"geometry":{"type":"Point","coordinates":[87.906497854670022,26.65303880665823]},"properties":{"FID":180,"VDC_NAME":"Surunga","DIST_NAME":"Jhapa"}},{"type":"Feature","id":181,"geometry":{"type":"Point","coordinates":[88.106057733562352,26.615207789402461]},"properties":{"FID":181,"VDC_NAME":"Jyamirgadhi","DIST_NAME":"Jhapa"}},{"type":"Feature","id":182,"geometry":{"type":"Point","coordinates":[87.991393087526603,26.457649120924827]},"properties":{"FID":182,"VDC_NAME":"Balubari","DIST_NAME":"Jhapa"}},{"type":"Feature","id":183,"geometry":{"type":"Point","coordinates":[88.084552812544359,26.629898172950107]},"properties":{"FID":183,"VDC_NAME":"Duhagadhi","DIST_NAME":"Jhapa"}},{"type":"Feature","id":184,"geometry":{"type":"Point","coordinates":[87.963238570342469,26.629896780602053]},"properties":{"FID":184,"VDC_NAME":"Charpani","DIST_NAME":"Jhapa"}},{"type":"Feature","id":185,"geometry":{"type":"Point","coordinates":[87.427367301101754,27.755968643955157]},"properties":{"FID":185,"VDC_NAME":"Chepuwa","DIST_NAME":"Sankhuwasabha"}},{"type":"Feature","id":186,"geometry":{"type":"Point","coordinates":[87.313545192903177,27.731771127399213]},"properties":{"FID":186,"VDC_NAME":"Hatiya","DIST_NAME":"Sankhuwasabha"}},{"type":"Feature","id":187,"geometry":{"type":"Point","coordinates":[87.423596193584103,27.614174149260975]},"properties":{"FID":187,"VDC_NAME":"Pawakhola","DIST_NAME":"Sankhuwasabha"}},{"type":"Feature","id":188,"geometry":{"type":"Point","coordinates":[87.33044648302689,27.603638279637266]},"properties":{"FID":188,"VDC_NAME":"Pathibhara","DIST_NAME":"Sankhuwasabha"}},{"type":"Feature","id":189,"geometry":{"type":"Point","coordinates":[87.102186176364171,27.501689914762778]},"properties":{"FID":189,"VDC_NAME":"Tamku","DIST_NAME":"Sankhuwasabha"}},{"type":"Feature","id":190,"geometry":{"type":"Point","coordinates":[87.171001823170911,27.498932108912413]},"properties":{"FID":190,"VDC_NAME":"Yafu","DIST_NAME":"Sankhuwasabha"}},{"type":"Feature","id":191,"geometry":{"type":"Point","coordinates":[87.223622329526506,27.49933595572935]},"properties":{"FID":191,"VDC_NAME":"Diding","DIST_NAME":"Sankhuwasabha"}},{"type":"Feature","id":192,"geometry":{"type":"Point","coordinates":[87.264060666793682,27.489795478883877]},"properties":{"FID":192,"VDC_NAME":"Matsya Pokhari","DIST_NAME":"Sankhuwasabha"}},{"type":"Feature","id":193,"geometry":{"type":"Point","coordinates":[87.143344341424495,27.411056516344104]},"properties":{"FID":193,"VDC_NAME":"Sitalpati","DIST_NAME":"Sankhuwasabha"}},{"type":"Feature","id":194,"geometry":{"type":"Point","coordinates":[87.187337226694979,27.409507179810021]},"properties":{"FID":194,"VDC_NAME":"Pangma(Pima)","DIST_NAME":"Sankhuwasabha"}},{"type":"Feature","id":195,"geometry":{"type":"Point","coordinates":[87.207223703545651,27.429855336176104]},"properties":{"FID":195,"VDC_NAME":"Malta","DIST_NAME":"Sankhuwasabha"}},{"type":"Feature","id":196,"geometry":{"type":"Point","coordinates":[87.266443185143601,27.417828415004408]},"properties":{"FID":196,"VDC_NAME":"Dhupu","DIST_NAME":"Sankhuwasabha"}},{"type":"Feature","id":197,"geometry":{"type":"Point","coordinates":[87.305675131999919,27.440742247915693]},"properties":{"FID":197,"VDC_NAME":"Bahrabise Bazar","DIST_NAME":"Sankhuwasabha"}},{"type":"Feature","id":198,"geometry":{"type":"Point","coordinates":[87.333458543167922,27.415381433236462]},"properties":{"FID":198,"VDC_NAME":"Savapokhari","DIST_NAME":"Sankhuwasabha"}},{"type":"Feature","id":199,"geometry":{"type":"Point","coordinates":[87.201436454075065,27.351039394159329]},"properties":{"FID":199,"VDC_NAME":"Manakamana","DIST_NAME":"Sankhuwasabha"}},{"type":"Feature","id":200,"geometry":{"type":"Point","coordinates":[87.295184509672822,27.264275141253108]},"properties":{"FID":200,"VDC_NAME":"Baneswor","DIST_NAME":"Sankhuwasabha"}},{"type":"Feature","id":201,"geometry":{"type":"Point","coordinates":[87.270745076815842,27.208701383909158]},"properties":{"FID":201,"VDC_NAME":"Ankhibhui","DIST_NAME":"Sankhuwasabha"}},{"type":"Feature","id":202,"geometry":{"type":"Point","coordinates":[87.332389085900274,27.235300481029071]},"properties":{"FID":202,"VDC_NAME":"Mamling","DIST_NAME":"Sankhuwasabha"}},{"type":"Feature","id":203,"geometry":{"type":"Point","coordinates":[87.380906211007584,27.216245330808363]},"properties":{"FID":203,"VDC_NAME":"Tamfok","DIST_NAME":"Sankhuwasabha"}},{"type":"Feature","id":204,"geometry":{"type":"Point","coordinates":[87.42377535326284,27.284862749781439]},"properties":{"FID":204,"VDC_NAME":"Mawadin","DIST_NAME":"Sankhuwasabha"}},{"type":"Feature","id":205,"geometry":{"type":"Point","coordinates":[87.402569795413626,27.245843330312255]},"properties":{"FID":205,"VDC_NAME":"Madi Mulkharka","DIST_NAME":"Sankhuwasabha"}},{"type":"Feature","id":206,"geometry":{"type":"Point","coordinates":[87.459765190769474,27.309603572901267]},"properties":{"FID":206,"VDC_NAME":"Nundhaki","DIST_NAME":"Sankhuwasabha"}},{"type":"Feature","id":207,"geometry":{"type":"Point","coordinates":[87.388980774174115,27.330311626293678]},"properties":{"FID":207,"VDC_NAME":"Siddhipokhari","DIST_NAME":"Sankhuwasabha"}},{"type":"Feature","id":208,"geometry":{"type":"Point","coordinates":[87.398112659657329,27.309277671552707]},"properties":{"FID":208,"VDC_NAME":"Siddhakali","DIST_NAME":"Sankhuwasabha"}},{"type":"Feature","id":209,"geometry":{"type":"Point","coordinates":[87.321188584959884,27.295410435054009]},"properties":{"FID":209,"VDC_NAME":"Chainpur","DIST_NAME":"Sankhuwasabha"}},{"type":"Feature","id":210,"geometry":{"type":"Point","coordinates":[87.310194801221371,27.33338002792118]},"properties":{"FID":210,"VDC_NAME":"Bana","DIST_NAME":"Sankhuwasabha"}},{"type":"Feature","id":211,"geometry":{"type":"Point","coordinates":[87.303061420498295,27.358276058907848]},"properties":{"FID":211,"VDC_NAME":"Syabun","DIST_NAME":"Sankhuwasabha"}},{"type":"Feature","id":212,"geometry":{"type":"Point","coordinates":[87.336062114069534,27.348306261455491]},"properties":{"FID":212,"VDC_NAME":"Jaljala","DIST_NAME":"Sankhuwasabha"}},{"type":"Feature","id":213,"geometry":{"type":"Point","coordinates":[87.269987680116174,27.273209559900295]},"properties":{"FID":213,"VDC_NAME":"Kharang","DIST_NAME":"Sankhuwasabha"}},{"type":"Feature","id":214,"geometry":{"type":"Point","coordinates":[86.990949086389264,27.506574978254775]},"properties":{"FID":214,"VDC_NAME":"Sisuwakhola","DIST_NAME":"Sankhuwasabha"}},{"type":"Feature","id":215,"geometry":{"type":"Point","coordinates":[87.413503187373237,27.851927582712847]},"properties":{"FID":215,"VDC_NAME":"Keemathnka","DIST_NAME":"Sankhuwasabha"}},{"type":"Feature","id":216,"geometry":{"type":"Point","coordinates":[87.354891608039964,27.270265284033258]},"properties":{"FID":216,"VDC_NAME":"Madi Rambeni","DIST_NAME":"Sankhuwasabha"}},{"type":"Feature","id":217,"geometry":{"type":"Point","coordinates":[87.220973079079386,27.563537000340773]},"properties":{"FID":217,"VDC_NAME":"Makalu","DIST_NAME":"Sankhuwasabha"}},{"type":"Feature","id":218,"geometry":{"type":"Point","coordinates":[87.139260109531335,27.500483682899016]},"properties":{"FID":218,"VDC_NAME":"Mangtewa","DIST_NAME":"Sankhuwasabha"}},{"type":"Feature","id":219,"geometry":{"type":"Point","coordinates":[87.28175622198961,27.55588136837298]},"properties":{"FID":219,"VDC_NAME":"Num","DIST_NAME":"Sankhuwasabha"}},{"type":"Feature","id":220,"geometry":{"type":"Point","coordinates":[87.583735167989914,27.274310919613242]},"properties":{"FID":220,"VDC_NAME":"Khamlalung","DIST_NAME":"Tehrathum"}},{"type":"Feature","id":221,"geometry":{"type":"Point","coordinates":[87.646524643249109,27.26587530795905]},"properties":{"FID":221,"VDC_NAME":"Hawaku","DIST_NAME":"Tehrathum"}},{"type":"Feature","id":222,"geometry":{"type":"Point","coordinates":[87.680739189409962,27.22904110833656]},"properties":{"FID":222,"VDC_NAME":"Ewa","DIST_NAME":"Tehrathum"}},{"type":"Feature","id":223,"geometry":{"type":"Point","coordinates":[87.719308588618844,27.219992630545505]},"properties":{"FID":223,"VDC_NAME":"Chhata Dhunga","DIST_NAME":"Tehrathum"}},{"type":"Feature","id":224,"geometry":{"type":"Point","coordinates":[87.68084712641172,27.19580862103038]},"properties":{"FID":224,"VDC_NAME":"Chuhandanda","DIST_NAME":"Tehrathum"}},{"type":"Feature","id":225,"geometry":{"type":"Point","coordinates":[87.654682447393327,27.176413861588344]},"properties":{"FID":225,"VDC_NAME":"Thoklung","DIST_NAME":"Tehrathum"}},{"type":"Feature","id":226,"geometry":{"type":"Point","coordinates":[87.614657181288635,27.151749205325018]},"properties":{"FID":226,"VDC_NAME":"Simle","DIST_NAME":"Tehrathum"}},{"type":"Feature","id":227,"geometry":{"type":"Point","coordinates":[87.533141345395222,27.121577412921852]},"properties":{"FID":227,"VDC_NAME":"Piple","DIST_NAME":"Tehrathum"}},{"type":"Feature","id":228,"geometry":{"type":"Point","coordinates":[87.519577451161126,27.140288317890565]},"properties":{"FID":228,"VDC_NAME":"Jirikhinti","DIST_NAME":"Tehrathum"}},{"type":"Feature","id":229,"geometry":{"type":"Point","coordinates":[87.475500830741851,27.135795726957838]},"properties":{"FID":229,"VDC_NAME":"Solma","DIST_NAME":"Tehrathum"}},{"type":"Feature","id":230,"geometry":{"type":"Point","coordinates":[87.458573955874215,27.121134829178857]},"properties":{"FID":230,"VDC_NAME":"Sungnam","DIST_NAME":"Tehrathum"}},{"type":"Feature","id":231,"geometry":{"type":"Point","coordinates":[87.579655503057666,27.230009091201964]},"properties":{"FID":231,"VDC_NAME":"Samdu","DIST_NAME":"Tehrathum"}},{"type":"Feature","id":232,"geometry":{"type":"Point","coordinates":[87.652903618202345,27.217789931857737]},"properties":{"FID":232,"VDC_NAME":"Sankranti Bazar","DIST_NAME":"Tehrathum"}},{"type":"Feature","id":233,"geometry":{"type":"Point","coordinates":[87.555551535325833,27.179966123775841]},"properties":{"FID":233,"VDC_NAME":"Oyabjung","DIST_NAME":"Tehrathum"}},{"type":"Feature","id":234,"geometry":{"type":"Point","coordinates":[87.522085662432517,27.185095506270613]},"properties":{"FID":234,"VDC_NAME":"Ambung","DIST_NAME":"Tehrathum"}},{"type":"Feature","id":235,"geometry":{"type":"Point","coordinates":[87.517637191116023,27.218127617995435]},"properties":{"FID":235,"VDC_NAME":"Morahang","DIST_NAME":"Tehrathum"}},{"type":"Feature","id":236,"geometry":{"type":"Point","coordinates":[87.521061664670356,27.237697211004274]},"properties":{"FID":236,"VDC_NAME":"Shree Jung","DIST_NAME":"Tehrathum"}},{"type":"Feature","id":237,"geometry":{"type":"Point","coordinates":[87.531764465960237,27.232239174825509]},"properties":{"FID":237,"VDC_NAME":"Pouthak","DIST_NAME":"Tehrathum"}},{"type":"Feature","id":238,"geometry":{"type":"Point","coordinates":[87.573075055572758,27.146724576897213]},"properties":{"FID":238,"VDC_NAME":"Jaljale","DIST_NAME":"Tehrathum"}},{"type":"Feature","id":239,"geometry":{"type":"Point","coordinates":[87.530355828024483,27.155650889376204]},"properties":{"FID":239,"VDC_NAME":"Sabla","DIST_NAME":"Tehrathum"}},{"type":"Feature","id":240,"geometry":{"type":"Point","coordinates":[87.4503150866949,27.042372175697437]},"properties":{"FID":240,"VDC_NAME":"Hamarjung","DIST_NAME":"Tehrathum"}},{"type":"Feature","id":241,"geometry":{"type":"Point","coordinates":[87.429252469415985,27.061992601445922]},"properties":{"FID":241,"VDC_NAME":"Amgdeem","DIST_NAME":"Tehrathum"}},{"type":"Feature","id":242,"geometry":{"type":"Point","coordinates":[87.466188221721552,27.087379981997628]},"properties":{"FID":242,"VDC_NAME":"Sudap","DIST_NAME":"Tehrathum"}},{"type":"Feature","id":243,"geometry":{"type":"Point","coordinates":[87.444401358621974,27.093671154708602]},"properties":{"FID":243,"VDC_NAME":"Dangpa","DIST_NAME":"Tehrathum"}},{"type":"Feature","id":244,"geometry":{"type":"Point","coordinates":[87.410698768214104,27.105899033772232]},"properties":{"FID":244,"VDC_NAME":"Phulek","DIST_NAME":"Tehrathum"}},{"type":"Feature","id":245,"geometry":{"type":"Point","coordinates":[87.429242716683689,27.124784362037701]},"properties":{"FID":245,"VDC_NAME":"Basantapur","DIST_NAME":"Tehrathum"}},{"type":"Feature","id":246,"geometry":{"type":"Point","coordinates":[87.492514193883437,27.074514907116338]},"properties":{"FID":246,"VDC_NAME":"Okhare","DIST_NAME":"Tehrathum"}},{"type":"Feature","id":247,"geometry":{"type":"Point","coordinates":[87.561640866825996,27.12463538719885]},"properties":{"FID":247,"VDC_NAME":"Tamfula","DIST_NAME":"Tehrathum"}},{"type":"Feature","id":248,"geometry":{"type":"Point","coordinates":[87.299329761835338,27.174497019509488]},"properties":{"FID":248,"VDC_NAME":"Chanuwa","DIST_NAME":"Dhankuta"}},{"type":"Feature","id":249,"geometry":{"type":"Point","coordinates":[87.333855621727082,27.179656856079589]},"properties":{"FID":249,"VDC_NAME":"Dandagaun","DIST_NAME":"Dhankuta"}},{"type":"Feature","id":250,"geometry":{"type":"Point","coordinates":[87.286844020820581,27.117880357062859]},"properties":{"FID":250,"VDC_NAME":"Leguwa","DIST_NAME":"Dhankuta"}},{"type":"Feature","id":251,"geometry":{"type":"Point","coordinates":[87.362075602720893,27.102430477147379]},"properties":{"FID":251,"VDC_NAME":"Murtidhunga","DIST_NAME":"Dhankuta"}},{"type":"Feature","id":252,"geometry":{"type":"Point","coordinates":[87.240754775785717,27.075984252933438]},"properties":{"FID":252,"VDC_NAME":"Falate","DIST_NAME":"Dhankuta"}},{"type":"Feature","id":253,"geometry":{"type":"Point","coordinates":[87.275693177275116,27.063107964102869]},"properties":{"FID":253,"VDC_NAME":"Pakhribas","DIST_NAME":"Dhankuta"}},{"type":"Feature","id":254,"geometry":{"type":"Point","coordinates":[87.309013711212287,27.069648557923017]},"properties":{"FID":254,"VDC_NAME":"Sanne","DIST_NAME":"Dhankuta"}},{"type":"Feature","id":255,"geometry":{"type":"Point","coordinates":[87.334500467643295,27.059386748883924]},"properties":{"FID":255,"VDC_NAME":"Hathikharka","DIST_NAME":"Dhankuta"}},{"type":"Feature","id":256,"geometry":{"type":"Point","coordinates":[87.410456554084078,27.049841493740075]},"properties":{"FID":256,"VDC_NAME":"Parewadin","DIST_NAME":"Dhankuta"}},{"type":"Feature","id":257,"geometry":{"type":"Point","coordinates":[87.413448863480085,26.990932813509744]},"properties":{"FID":257,"VDC_NAME":"Telia","DIST_NAME":"Dhankuta"}},{"type":"Feature","id":258,"geometry":{"type":"Point","coordinates":[87.342566211188,26.983609264443146]},"properties":{"FID":258,"VDC_NAME":"Dhankuta N.P.","DIST_NAME":"Dhankuta"}},{"type":"Feature","id":259,"geometry":{"type":"Point","coordinates":[87.298627536148501,26.960146039726055]},"properties":{"FID":259,"VDC_NAME":"Belhara","DIST_NAME":"Dhankuta"}},{"type":"Feature","id":260,"geometry":{"type":"Point","coordinates":[87.212984010598689,26.951832281265013]},"properties":{"FID":260,"VDC_NAME":"Chhintang","DIST_NAME":"Dhankuta"}},{"type":"Feature","id":261,"geometry":{"type":"Point","coordinates":[87.223807526991322,26.986312349612888]},"properties":{"FID":261,"VDC_NAME":"Khoku","DIST_NAME":"Dhankuta"}},{"type":"Feature","id":262,"geometry":{"type":"Point","coordinates":[87.255961761748097,26.967731627519186]},"properties":{"FID":262,"VDC_NAME":"Ankhisalla","DIST_NAME":"Dhankuta"}},{"type":"Feature","id":263,"geometry":{"type":"Point","coordinates":[87.254877152220558,27.008949418454904]},"properties":{"FID":263,"VDC_NAME":"Chungmang","DIST_NAME":"Dhankuta"}},{"type":"Feature","id":264,"geometry":{"type":"Point","coordinates":[87.223981372128378,27.034327335944852]},"properties":{"FID":264,"VDC_NAME":"Muga","DIST_NAME":"Dhankuta"}},{"type":"Feature","id":265,"geometry":{"type":"Point","coordinates":[87.240974514091135,26.892342584453672]},"properties":{"FID":265,"VDC_NAME":"Ahale","DIST_NAME":"Dhankuta"}},{"type":"Feature","id":266,"geometry":{"type":"Point","coordinates":[87.28586783343701,26.883057761275836]},"properties":{"FID":266,"VDC_NAME":"Mahabharat","DIST_NAME":"Dhankuta"}},{"type":"Feature","id":267,"geometry":{"type":"Point","coordinates":[87.390475803972606,26.883014797693761]},"properties":{"FID":267,"VDC_NAME":"Danda Bazar","DIST_NAME":"Dhankuta"}},{"type":"Feature","id":268,"geometry":{"type":"Point","coordinates":[87.423956596182734,26.888039193194686]},"properties":{"FID":268,"VDC_NAME":"Raja Rani","DIST_NAME":"Dhankuta"}},{"type":"Feature","id":269,"geometry":{"type":"Point","coordinates":[87.43574201713011,26.900769892830112]},"properties":{"FID":269,"VDC_NAME":"Maunabuthuk","DIST_NAME":"Dhankuta"}},{"type":"Feature","id":270,"geometry":{"type":"Point","coordinates":[87.382304779883214,26.913771561445628]},"properties":{"FID":270,"VDC_NAME":"Khuwafok","DIST_NAME":"Dhankuta"}},{"type":"Feature","id":271,"geometry":{"type":"Point","coordinates":[87.357688491751617,26.899037986116809]},"properties":{"FID":271,"VDC_NAME":"Faksib","DIST_NAME":"Dhankuta"}},{"type":"Feature","id":272,"geometry":{"type":"Point","coordinates":[87.345108760894277,26.91497780165929]},"properties":{"FID":272,"VDC_NAME":"Budi Morang","DIST_NAME":"Dhankuta"}},{"type":"Feature","id":273,"geometry":{"type":"Point","coordinates":[87.34305327629005,27.017881176052811]},"properties":{"FID":273,"VDC_NAME":"Bhirgaun","DIST_NAME":"Dhankuta"}},{"type":"Feature","id":274,"geometry":{"type":"Point","coordinates":[87.462892229733427,26.876702096004237]},"properties":{"FID":274,"VDC_NAME":"Basantatar","DIST_NAME":"Dhankuta"}},{"type":"Feature","id":275,"geometry":{"type":"Point","coordinates":[87.501590705526326,26.885643968839815]},"properties":{"FID":275,"VDC_NAME":"Mudebas","DIST_NAME":"Dhankuta"}},{"type":"Feature","id":276,"geometry":{"type":"Point","coordinates":[87.570506071724935,26.868671985292565]},"properties":{"FID":276,"VDC_NAME":"Bhdhabare","DIST_NAME":"Dhankuta"}},{"type":"Feature","id":277,"geometry":{"type":"Point","coordinates":[87.492991719846032,26.939231495686329]},"properties":{"FID":277,"VDC_NAME":"Kuruletenupa","DIST_NAME":"Dhankuta"}},{"type":"Feature","id":278,"geometry":{"type":"Point","coordinates":[87.436008140774163,26.926697921415951]},"properties":{"FID":278,"VDC_NAME":"Boghe","DIST_NAME":"Dhankuta"}},{"type":"Feature","id":279,"geometry":{"type":"Point","coordinates":[87.2683465142145,27.079030751047128]},"properties":{"FID":279,"VDC_NAME":"Ghortikharka","DIST_NAME":"Dhankuta"}},{"type":"Feature","id":280,"geometry":{"type":"Point","coordinates":[87.314313893616543,27.115338837961417]},"properties":{"FID":280,"VDC_NAME":"Jitpur Arkhaule","DIST_NAME":"Dhankuta"}},{"type":"Feature","id":281,"geometry":{"type":"Point","coordinates":[87.331112197742073,26.869678247410093]},"properties":{"FID":281,"VDC_NAME":"Vedatar","DIST_NAME":"Dhankuta"}},{"type":"Feature","id":282,"geometry":{"type":"Point","coordinates":[87.341958324166967,27.139307024547065]},"properties":{"FID":282,"VDC_NAME":"Marek Kataharl","DIST_NAME":"Dhankuta"}},{"type":"Feature","id":283,"geometry":{"type":"Point","coordinates":[87.398412230427255,27.023541252497637]},"properties":{"FID":283,"VDC_NAME":"Tankhuwa","DIST_NAME":"Dhankuta"}},{"type":"Feature","id":284,"geometry":{"type":"Point","coordinates":[87.075298802588918,27.424219878167776]},"properties":{"FID":284,"VDC_NAME":"Chaukidada","DIST_NAME":"Bhojpur"}},{"type":"Feature","id":285,"geometry":{"type":"Point","coordinates":[87.036524787284122,27.394630969216678]},"properties":{"FID":285,"VDC_NAME":"Khatamma","DIST_NAME":"Bhojpur"}},{"type":"Feature","id":286,"geometry":{"type":"Point","coordinates":[87.106285980159271,27.402892816918495]},"properties":{"FID":286,"VDC_NAME":"Nepaledada","DIST_NAME":"Bhojpur"}},{"type":"Feature","id":287,"geometry":{"type":"Point","coordinates":[87.092548389203671,27.370220686404537]},"properties":{"FID":287,"VDC_NAME":"Kudak Kaule","DIST_NAME":"Bhojpur"}},{"type":"Feature","id":288,"geometry":{"type":"Point","coordinates":[87.131193972477433,27.363111795820089]},"properties":{"FID":288,"VDC_NAME":"Mulpani","DIST_NAME":"Bhojpur"}},{"type":"Feature","id":289,"geometry":{"type":"Point","coordinates":[87.167909607330557,27.355173233909284]},"properties":{"FID":289,"VDC_NAME":"Keurepani","DIST_NAME":"Bhojpur"}},{"type":"Feature","id":290,"geometry":{"type":"Point","coordinates":[87.123253460002502,27.344701651198648]},"properties":{"FID":290,"VDC_NAME":"Tunggochha","DIST_NAME":"Bhojpur"}},{"type":"Feature","id":291,"geometry":{"type":"Point","coordinates":[87.143111241062854,27.311593684081458]},"properties":{"FID":291,"VDC_NAME":"Deurali","DIST_NAME":"Bhojpur"}},{"type":"Feature","id":292,"geometry":{"type":"Point","coordinates":[86.981101709751385,27.255960928050001]},"properties":{"FID":292,"VDC_NAME":"Timma","DIST_NAME":"Bhojpur"}},{"type":"Feature","id":293,"geometry":{"type":"Point","coordinates":[86.975411823953152,27.229742883845574]},"properties":{"FID":293,"VDC_NAME":"Chhinamukh","DIST_NAME":"Bhojpur"}},{"type":"Feature","id":294,"geometry":{"type":"Point","coordinates":[86.970736458175054,27.205084932928003]},"properties":{"FID":294,"VDC_NAME":"Annapurna","DIST_NAME":"Bhojpur"}},{"type":"Feature","id":295,"geometry":{"type":"Point","coordinates":[86.942862632465619,27.197547042684278]},"properties":{"FID":295,"VDC_NAME":"Nagi","DIST_NAME":"Bhojpur"}},{"type":"Feature","id":296,"geometry":{"type":"Point","coordinates":[86.972812068939049,27.184409337430452]},"properties":{"FID":296,"VDC_NAME":"Khawa","DIST_NAME":"Bhojpur"}},{"type":"Feature","id":297,"geometry":{"type":"Point","coordinates":[86.96378871758742,27.154073617916481]},"properties":{"FID":297,"VDC_NAME":"Gogane","DIST_NAME":"Bhojpur"}},{"type":"Feature","id":298,"geometry":{"type":"Point","coordinates":[86.945496627835553,27.131568498615877]},"properties":{"FID":298,"VDC_NAME":"Lekharka","DIST_NAME":"Bhojpur"}},{"type":"Feature","id":299,"geometry":{"type":"Point","coordinates":[86.976636408051831,27.108952177015681]},"properties":{"FID":299,"VDC_NAME":"Okhre","DIST_NAME":"Bhojpur"}},{"type":"Feature","id":300,"geometry":{"type":"Point","coordinates":[86.974950967510722,27.096057740941944]},"properties":{"FID":300,"VDC_NAME":"Bhulke","DIST_NAME":"Bhojpur"}},{"type":"Feature","id":301,"geometry":{"type":"Point","coordinates":[87.020682799263341,27.104347534446788]},"properties":{"FID":301,"VDC_NAME":"Dalgaun","DIST_NAME":"Bhojpur"}},{"type":"Feature","id":302,"geometry":{"type":"Point","coordinates":[87.036352404760578,27.076735913567973]},"properties":{"FID":302,"VDC_NAME":"Baikuntha","DIST_NAME":"Bhojpur"}},{"type":"Feature","id":303,"geometry":{"type":"Point","coordinates":[87.000178246494727,27.088784460456679]},"properties":{"FID":303,"VDC_NAME":"Dhodalekhani","DIST_NAME":"Bhojpur"}},{"type":"Feature","id":304,"geometry":{"type":"Point","coordinates":[87.059169554568371,27.056430859985824]},"properties":{"FID":304,"VDC_NAME":"Basikhola","DIST_NAME":"Bhojpur"}},{"type":"Feature","id":305,"geometry":{"type":"Point","coordinates":[86.971842174567485,26.988329123420215]},"properties":{"FID":305,"VDC_NAME":"Walangkha","DIST_NAME":"Bhojpur"}},{"type":"Feature","id":306,"geometry":{"type":"Point","coordinates":[87.056722845622346,26.996436870178798]},"properties":{"FID":306,"VDC_NAME":"Dewantar","DIST_NAME":"Bhojpur"}},{"type":"Feature","id":307,"geometry":{"type":"Point","coordinates":[87.014676794368313,26.949498324961951]},"properties":{"FID":307,"VDC_NAME":"Pangcha","DIST_NAME":"Bhojpur"}},{"type":"Feature","id":308,"geometry":{"type":"Point","coordinates":[87.027728596622239,26.960041522711265]},"properties":{"FID":308,"VDC_NAME":"Pawala","DIST_NAME":"Bhojpur"}},{"type":"Feature","id":309,"geometry":{"type":"Point","coordinates":[87.038348271830785,26.930652275683826]},"properties":{"FID":309,"VDC_NAME":"Dummana","DIST_NAME":"Bhojpur"}},{"type":"Feature","id":310,"geometry":{"type":"Point","coordinates":[87.141170509169797,26.950440029727133]},"properties":{"FID":310,"VDC_NAME":"Hasanpur","DIST_NAME":"Bhojpur"}},{"type":"Feature","id":311,"geometry":{"type":"Point","coordinates":[87.122220559044649,26.982293121720886]},"properties":{"FID":311,"VDC_NAME":"Patle Pani","DIST_NAME":"Bhojpur"}},{"type":"Feature","id":312,"geometry":{"type":"Point","coordinates":[87.112463091700874,27.005485987094687]},"properties":{"FID":312,"VDC_NAME":"Khairang","DIST_NAME":"Bhojpur"}},{"type":"Feature","id":313,"geometry":{"type":"Point","coordinates":[87.092827901797193,26.997934965517118]},"properties":{"FID":313,"VDC_NAME":"Sindrang","DIST_NAME":"Bhojpur"}},{"type":"Feature","id":314,"geometry":{"type":"Point","coordinates":[87.165922312395708,27.018805205778563]},"properties":{"FID":314,"VDC_NAME":"Homtang","DIST_NAME":"Bhojpur"}},{"type":"Feature","id":315,"geometry":{"type":"Point","coordinates":[87.091942162948499,27.023342294676752]},"properties":{"FID":315,"VDC_NAME":"Ranibas","DIST_NAME":"Bhojpur"}},{"type":"Feature","id":316,"geometry":{"type":"Point","coordinates":[87.157780632653953,27.084560483359724]},"properties":{"FID":316,"VDC_NAME":"Thulo Dumba","DIST_NAME":"Bhojpur"}},{"type":"Feature","id":317,"geometry":{"type":"Point","coordinates":[87.182518490820996,27.11335945302028]},"properties":{"FID":317,"VDC_NAME":"Sano Dumba","DIST_NAME":"Bhojpur"}},{"type":"Feature","id":318,"geometry":{"type":"Point","coordinates":[87.233970634533364,27.150668947385725]},"properties":{"FID":318,"VDC_NAME":"Jarayotar","DIST_NAME":"Bhojpur"}},{"type":"Feature","id":319,"geometry":{"type":"Point","coordinates":[87.063058774227216,27.093897365226837]},"properties":{"FID":319,"VDC_NAME":"Mane Bhanjyang","DIST_NAME":"Bhojpur"}},{"type":"Feature","id":320,"geometry":{"type":"Point","coordinates":[87.18334064092187,27.16431340050525]},"properties":{"FID":320,"VDC_NAME":"Yaku","DIST_NAME":"Bhojpur"}},{"type":"Feature","id":321,"geometry":{"type":"Point","coordinates":[87.138226544164354,27.160799173996168]},"properties":{"FID":321,"VDC_NAME":"Changre","DIST_NAME":"Bhojpur"}},{"type":"Feature","id":322,"geometry":{"type":"Point","coordinates":[87.069143963507486,27.161174936861642]},"properties":{"FID":322,"VDC_NAME":"Aamtep","DIST_NAME":"Bhojpur"}},{"type":"Feature","id":323,"geometry":{"type":"Point","coordinates":[87.042177921000302,27.153322385253205]},"properties":{"FID":323,"VDC_NAME":"Taksar","DIST_NAME":"Bhojpur"}},{"type":"Feature","id":324,"geometry":{"type":"Point","coordinates":[87.05643456002872,27.176981238337817]},"properties":{"FID":324,"VDC_NAME":"Bhojpur","DIST_NAME":"Bhojpur"}},{"type":"Feature","id":325,"geometry":{"type":"Point","coordinates":[87.031062167590449,27.189428669272559]},"properties":{"FID":325,"VDC_NAME":"Bokhim","DIST_NAME":"Bhojpur"}},{"type":"Feature","id":326,"geometry":{"type":"Point","coordinates":[87.078479642250784,27.204389801288812]},"properties":{"FID":326,"VDC_NAME":"Bhaisipankha","DIST_NAME":"Bhojpur"}},{"type":"Feature","id":327,"geometry":{"type":"Point","coordinates":[87.150102292560746,27.209260740674154]},"properties":{"FID":327,"VDC_NAME":"Pyauli","DIST_NAME":"Bhojpur"}},{"type":"Feature","id":328,"geometry":{"type":"Point","coordinates":[87.096063932629249,27.178052226951877]},"properties":{"FID":328,"VDC_NAME":"Syamsila","DIST_NAME":"Bhojpur"}},{"type":"Feature","id":329,"geometry":{"type":"Point","coordinates":[87.135800381002412,27.170895678732791]},"properties":{"FID":329,"VDC_NAME":"Tiwari Bhanjyang","DIST_NAME":"Bhojpur"}},{"type":"Feature","id":330,"geometry":{"type":"Point","coordinates":[87.14501357990099,27.226636849135957]},"properties":{"FID":330,"VDC_NAME":"Champe","DIST_NAME":"Bhojpur"}},{"type":"Feature","id":331,"geometry":{"type":"Point","coordinates":[87.175129881937892,27.242139157364363]},"properties":{"FID":331,"VDC_NAME":"Yangpang","DIST_NAME":"Bhojpur"}},{"type":"Feature","id":332,"geometry":{"type":"Point","coordinates":[87.089402105982856,27.245028117584525]},"properties":{"FID":332,"VDC_NAME":"Helauchha","DIST_NAME":"Bhojpur"}},{"type":"Feature","id":333,"geometry":{"type":"Point","coordinates":[87.006558524029856,27.228280919143003]},"properties":{"FID":333,"VDC_NAME":"Gupteshor","DIST_NAME":"Bhojpur"}},{"type":"Feature","id":334,"geometry":{"type":"Point","coordinates":[87.022204772328223,27.214809076678478]},"properties":{"FID":334,"VDC_NAME":"Siddheswor","DIST_NAME":"Bhojpur"}},{"type":"Feature","id":335,"geometry":{"type":"Point","coordinates":[87.130851359912413,27.117487091934493]},"properties":{"FID":335,"VDC_NAME":"Basteem","DIST_NAME":"Bhojpur"}},{"type":"Feature","id":336,"geometry":{"type":"Point","coordinates":[86.967225727672314,27.026861511051436]},"properties":{"FID":336,"VDC_NAME":"Basingtharpur","DIST_NAME":"Bhojpur"}},{"type":"Feature","id":337,"geometry":{"type":"Point","coordinates":[87.007468315103438,27.394626370103765]},"properties":{"FID":337,"VDC_NAME":"Dobhane","DIST_NAME":"Bhojpur"}},{"type":"Feature","id":338,"geometry":{"type":"Point","coordinates":[87.215577309044022,27.189492759583345]},"properties":{"FID":338,"VDC_NAME":"Charambi","DIST_NAME":"Bhojpur"}},{"type":"Feature","id":339,"geometry":{"type":"Point","coordinates":[87.117877683517179,27.278934589444759]},"properties":{"FID":339,"VDC_NAME":"Boya","DIST_NAME":"Bhojpur"}},{"type":"Feature","id":340,"geometry":{"type":"Point","coordinates":[87.120638064779598,27.311154427021393]},"properties":{"FID":340,"VDC_NAME":"Sangpang","DIST_NAME":"Bhojpur"}},{"type":"Feature","id":341,"geometry":{"type":"Point","coordinates":[87.075096485340623,27.316640130616065]},"properties":{"FID":341,"VDC_NAME":"Keemalung","DIST_NAME":"Bhojpur"}},{"type":"Feature","id":342,"geometry":{"type":"Point","coordinates":[87.108276071153171,27.429766826720481]},"properties":{"FID":342,"VDC_NAME":"Kuluga","DIST_NAME":"Bhojpur"}},{"type":"Feature","id":343,"geometry":{"type":"Point","coordinates":[87.163144451271307,26.823544957840625]},"properties":{"FID":343,"VDC_NAME":"Barahachhetra","DIST_NAME":"Sunsari"}},{"type":"Feature","id":344,"geometry":{"type":"Point","coordinates":[87.252876922253279,26.828090239505286]},"properties":{"FID":344,"VDC_NAME":"Bishnupaduka","DIST_NAME":"Sunsari"}},{"type":"Feature","id":345,"geometry":{"type":"Point","coordinates":[87.319068722071961,26.817564413853518]},"properties":{"FID":345,"VDC_NAME":"Panchakanya","DIST_NAME":"Sunsari"}},{"type":"Feature","id":346,"geometry":{"type":"Point","coordinates":[87.285008011964294,26.817393763840414]},"properties":{"FID":346,"VDC_NAME":"Dharan N.P.","DIST_NAME":"Sunsari"}},{"type":"Feature","id":347,"geometry":{"type":"Point","coordinates":[87.139147587737853,26.762545293093865]},"properties":{"FID":347,"VDC_NAME":"Mahendranagar","DIST_NAME":"Sunsari"}},{"type":"Feature","id":348,"geometry":{"type":"Point","coordinates":[87.187542526027357,26.747365481108886]},"properties":{"FID":348,"VDC_NAME":"Bharaul","DIST_NAME":"Sunsari"}},{"type":"Feature","id":349,"geometry":{"type":"Point","coordinates":[87.253102845130854,26.686084021844124]},"properties":{"FID":349,"VDC_NAME":"Hanshpokha","DIST_NAME":"Sunsari"}},{"type":"Feature","id":350,"geometry":{"type":"Point","coordinates":[87.281572578525811,26.667377313783675]},"properties":{"FID":350,"VDC_NAME":"Itahari","DIST_NAME":"Sunsari"}},{"type":"Feature","id":351,"geometry":{"type":"Point","coordinates":[87.266424090475539,26.622548793501664]},"properties":{"FID":351,"VDC_NAME":"Khanar","DIST_NAME":"Sunsari"}},{"type":"Feature","id":352,"geometry":{"type":"Point","coordinates":[87.243341193946605,26.6047675999489]},"properties":{"FID":352,"VDC_NAME":"Madhelee","DIST_NAME":"Sunsari"}},{"type":"Feature","id":353,"geometry":{"type":"Point","coordinates":[87.262329535751803,26.565123682202966]},"properties":{"FID":353,"VDC_NAME":"Duhabi","DIST_NAME":"Sunsari"}},{"type":"Feature","id":354,"geometry":{"type":"Point","coordinates":[87.237048964963037,26.568634119016224]},"properties":{"FID":354,"VDC_NAME":"Simariya","DIST_NAME":"Sunsari"}},{"type":"Feature","id":355,"geometry":{"type":"Point","coordinates":[87.248294027583484,26.543343384737113]},"properties":{"FID":355,"VDC_NAME":"Bhaluwa","DIST_NAME":"Sunsari"}},{"type":"Feature","id":356,"geometry":{"type":"Point","coordinates":[87.238014677832155,26.429736572543959]},"properties":{"FID":356,"VDC_NAME":"Amaduwa","DIST_NAME":"Sunsari"}},{"type":"Feature","id":357,"geometry":{"type":"Point","coordinates":[87.179635075217675,26.417262115373603]},"properties":{"FID":357,"VDC_NAME":"Sahebganj","DIST_NAME":"Sunsari"}},{"type":"Feature","id":358,"geometry":{"type":"Point","coordinates":[87.14494104549243,26.421868934821816]},"properties":{"FID":358,"VDC_NAME":"Kaptanganj","DIST_NAME":"Sunsari"}},{"type":"Feature","id":359,"geometry":{"type":"Point","coordinates":[87.140111287207787,26.452448434765074]},"properties":{"FID":359,"VDC_NAME":"Dewanganj","DIST_NAME":"Sunsari"}},{"type":"Feature","id":360,"geometry":{"type":"Point","coordinates":[87.19200691714974,26.46011664139121]},"properties":{"FID":360,"VDC_NAME":"Amahibelaha","DIST_NAME":"Sunsari"}},{"type":"Feature","id":361,"geometry":{"type":"Point","coordinates":[87.189709871238392,26.487839261152601]},"properties":{"FID":361,"VDC_NAME":"Chimdi","DIST_NAME":"Sunsari"}},{"type":"Feature","id":362,"geometry":{"type":"Point","coordinates":[87.093943850720848,26.467050450215368]},"properties":{"FID":362,"VDC_NAME":"Dhuskee","DIST_NAME":"Sunsari"}},{"type":"Feature","id":363,"geometry":{"type":"Point","coordinates":[87.114646253962519,26.4985021979208]},"properties":{"FID":363,"VDC_NAME":"Harinagar","DIST_NAME":"Sunsari"}},{"type":"Feature","id":364,"geometry":{"type":"Point","coordinates":[87.138934174085762,26.524421329492839]},"properties":{"FID":364,"VDC_NAME":"Gautampurg","DIST_NAME":"Sunsari"}},{"type":"Feature","id":365,"geometry":{"type":"Point","coordinates":[87.118772125081364,26.531751973415339]},"properties":{"FID":365,"VDC_NAME":"Ramnagar","DIST_NAME":"Sunsari"}},{"type":"Feature","id":366,"geometry":{"type":"Point","coordinates":[87.087541214396936,26.541616959349938]},"properties":{"FID":366,"VDC_NAME":"Basantapur","DIST_NAME":"Sunsari"}},{"type":"Feature","id":367,"geometry":{"type":"Point","coordinates":[87.120510760127445,26.551245241376535]},"properties":{"FID":367,"VDC_NAME":"Jalpapur","DIST_NAME":"Sunsari"}},{"type":"Feature","id":368,"geometry":{"type":"Point","coordinates":[87.107374337413205,26.56202805439699]},"properties":{"FID":368,"VDC_NAME":"Narshinhatappu","DIST_NAME":"Sunsari"}},{"type":"Feature","id":369,"geometry":{"type":"Point","coordinates":[87.14681942106256,26.600899201577647]},"properties":{"FID":369,"VDC_NAME":"Inaruwa N.P.","DIST_NAME":"Sunsari"}},{"type":"Feature","id":370,"geometry":{"type":"Point","coordinates":[87.204863047150639,26.622867564516014]},"properties":{"FID":370,"VDC_NAME":"Madhesa","DIST_NAME":"Sunsari"}},{"type":"Feature","id":371,"geometry":{"type":"Point","coordinates":[87.219578307901543,26.619377827078324]},"properties":{"FID":371,"VDC_NAME":"Chadwela","DIST_NAME":"Sunsari"}},{"type":"Feature","id":372,"geometry":{"type":"Point","coordinates":[87.226972621246659,26.545797352861996]},"properties":{"FID":372,"VDC_NAME":"Tanamuna","DIST_NAME":"Sunsari"}},{"type":"Feature","id":373,"geometry":{"type":"Point","coordinates":[87.204369999072583,26.537498641464822]},"properties":{"FID":373,"VDC_NAME":"Chhitaha","DIST_NAME":"Sunsari"}},{"type":"Feature","id":374,"geometry":{"type":"Point","coordinates":[87.213941793732374,26.593194090186046]},"properties":{"FID":374,"VDC_NAME":"Aurabarni","DIST_NAME":"Sunsari"}},{"type":"Feature","id":375,"geometry":{"type":"Point","coordinates":[87.068865292302291,26.592154658716311]},"properties":{"FID":375,"VDC_NAME":"Laukahi","DIST_NAME":"Sunsari"}},{"type":"Feature","id":376,"geometry":{"type":"Point","coordinates":[87.099873682499151,26.621932176900657]},"properties":{"FID":376,"VDC_NAME":"Bhokraha","DIST_NAME":"Sunsari"}},{"type":"Feature","id":377,"geometry":{"type":"Point","coordinates":[87.146573397855263,26.659317826929907]},"properties":{"FID":377,"VDC_NAME":"Dumaraha","DIST_NAME":"Sunsari"}},{"type":"Feature","id":378,"geometry":{"type":"Point","coordinates":[87.191931156751082,26.67720450294081]},"properties":{"FID":378,"VDC_NAME":"Singiya","DIST_NAME":"Sunsari"}},{"type":"Feature","id":379,"geometry":{"type":"Point","coordinates":[87.199598086287835,26.664815707478795]},"properties":{"FID":379,"VDC_NAME":"Bhadgau Sinawari","DIST_NAME":"Sunsari"}},{"type":"Feature","id":380,"geometry":{"type":"Point","coordinates":[87.093845327866404,26.680985734108106]},"properties":{"FID":380,"VDC_NAME":"Prakashpur","DIST_NAME":"Sunsari"}},{"type":"Feature","id":381,"geometry":{"type":"Point","coordinates":[87.064431143336776,26.655188529667953]},"properties":{"FID":381,"VDC_NAME":"Madhuwan","DIST_NAME":"Sunsari"}},{"type":"Feature","id":382,"geometry":{"type":"Point","coordinates":[87.121512599755761,26.473810199626087]},"properties":{"FID":382,"VDC_NAME":"Madhyeharsahi","DIST_NAME":"Sunsari"}},{"type":"Feature","id":383,"geometry":{"type":"Point","coordinates":[87.136605684411791,26.580585625560445]},"properties":{"FID":383,"VDC_NAME":"Babiya","DIST_NAME":"Sunsari"}},{"type":"Feature","id":384,"geometry":{"type":"Point","coordinates":[87.032873912570096,26.613159317470661]},"properties":{"FID":384,"VDC_NAME":"Paschim Kasuha","DIST_NAME":"Sunsari"}},{"type":"Feature","id":385,"geometry":{"type":"Point","coordinates":[87.224099678592381,26.45523130834448]},"properties":{"FID":385,"VDC_NAME":"Ramganj Belgachhi","DIST_NAME":"Sunsari"}},{"type":"Feature","id":386,"geometry":{"type":"Point","coordinates":[86.990363225070155,26.54343193834211]},"properties":{"FID":386,"VDC_NAME":"Haripur(Sriharipur)","DIST_NAME":"Sunsari"}},{"type":"Feature","id":387,"geometry":{"type":"Point","coordinates":[87.281963787914435,26.601717147414774]},"properties":{"FID":387,"VDC_NAME":"Sonapur","DIST_NAME":"Sunsari"}},{"type":"Feature","id":388,"geometry":{"type":"Point","coordinates":[87.308612880794556,26.505546702287347]},"properties":{"FID":388,"VDC_NAME":"Jhapa Baijanathpur","DIST_NAME":"Morang"}},{"type":"Feature","id":389,"geometry":{"type":"Point","coordinates":[87.34480210551942,26.500100772804103]},"properties":{"FID":389,"VDC_NAME":"Bhaudaha","DIST_NAME":"Morang"}},{"type":"Feature","id":390,"geometry":{"type":"Point","coordinates":[87.40574468757859,26.517411904324945]},"properties":{"FID":390,"VDC_NAME":"Babia Birta","DIST_NAME":"Morang"}},{"type":"Feature","id":391,"geometry":{"type":"Point","coordinates":[87.328858142665069,26.519730892663688]},"properties":{"FID":391,"VDC_NAME":"Jhorahat","DIST_NAME":"Morang"}},{"type":"Feature","id":392,"geometry":{"type":"Point","coordinates":[87.317231598140438,26.546863948781663]},"properties":{"FID":392,"VDC_NAME":"Lakhantari","DIST_NAME":"Morang"}},{"type":"Feature","id":393,"geometry":{"type":"Point","coordinates":[87.389601681285285,26.558411904132754]},"properties":{"FID":393,"VDC_NAME":"Motipur","DIST_NAME":"Morang"}},{"type":"Feature","id":394,"geometry":{"type":"Point","coordinates":[87.358326036796825,26.536400376453628]},"properties":{"FID":394,"VDC_NAME":"Sidraha","DIST_NAME":"Morang"}},{"type":"Feature","id":395,"geometry":{"type":"Point","coordinates":[87.342709723190637,26.567290458919047]},"properties":{"FID":395,"VDC_NAME":"Tetariya","DIST_NAME":"Morang"}},{"type":"Feature","id":396,"geometry":{"type":"Point","coordinates":[87.327009861620752,26.587101764305658]},"properties":{"FID":396,"VDC_NAME":"Dangraha","DIST_NAME":"Morang"}},{"type":"Feature","id":397,"geometry":{"type":"Point","coordinates":[87.307214722388778,26.571542513549048]},"properties":{"FID":397,"VDC_NAME":"Hathimudha","DIST_NAME":"Morang"}},{"type":"Feature","id":398,"geometry":{"type":"Point","coordinates":[87.365456038763057,26.613437044854663]},"properties":{"FID":398,"VDC_NAME":"Haraicha","DIST_NAME":"Morang"}},{"type":"Feature","id":399,"geometry":{"type":"Point","coordinates":[87.338817176185387,26.63022327949767]},"properties":{"FID":399,"VDC_NAME":"Mrigauliya","DIST_NAME":"Morang"}},{"type":"Feature","id":400,"geometry":{"type":"Point","coordinates":[87.315786295603573,26.654392279249123]},"properties":{"FID":400,"VDC_NAME":"Dulari","DIST_NAME":"Morang"}},{"type":"Feature","id":401,"geometry":{"type":"Point","coordinates":[87.299278132765437,26.66488510925484]},"properties":{"FID":401,"VDC_NAME":"Sundarpur","DIST_NAME":"Morang"}},{"type":"Feature","id":402,"geometry":{"type":"Point","coordinates":[87.401589818014656,26.669896076949328]},"properties":{"FID":402,"VDC_NAME":"Indrapur","DIST_NAME":"Morang"}},{"type":"Feature","id":403,"geometry":{"type":"Point","coordinates":[87.406220822616319,26.652466538824399]},"properties":{"FID":403,"VDC_NAME":"Belbari","DIST_NAME":"Morang"}},{"type":"Feature","id":404,"geometry":{"type":"Point","coordinates":[87.430327573730551,26.620306508611634]},"properties":{"FID":404,"VDC_NAME":"Dangihat","DIST_NAME":"Morang"}},{"type":"Feature","id":405,"geometry":{"type":"Point","coordinates":[87.392232234503581,26.596011910081018]},"properties":{"FID":405,"VDC_NAME":"Kaseni","DIST_NAME":"Morang"}},{"type":"Feature","id":406,"geometry":{"type":"Point","coordinates":[87.372825794529774,26.591026040294992]},"properties":{"FID":406,"VDC_NAME":"Banigama","DIST_NAME":"Morang"}},{"type":"Feature","id":407,"geometry":{"type":"Point","coordinates":[87.452290680189378,26.590253846481403]},"properties":{"FID":407,"VDC_NAME":"Bahuni","DIST_NAME":"Morang"}},{"type":"Feature","id":408,"geometry":{"type":"Point","coordinates":[87.509167873424417,26.591180345690645]},"properties":{"FID":408,"VDC_NAME":"Bairban","DIST_NAME":"Morang"}},{"type":"Feature","id":409,"geometry":{"type":"Point","coordinates":[87.468532569182059,26.558093602392432]},"properties":{"FID":409,"VDC_NAME":"Hoklabari","DIST_NAME":"Morang"}},{"type":"Feature","id":410,"geometry":{"type":"Point","coordinates":[87.386125592828762,26.483705893207627]},"properties":{"FID":410,"VDC_NAME":"Darbairiya","DIST_NAME":"Morang"}},{"type":"Feature","id":411,"geometry":{"type":"Point","coordinates":[87.278421346286393,26.456516271580369]},"properties":{"FID":411,"VDC_NAME":"Biratnagar N.P.","DIST_NAME":"Morang"}},{"type":"Feature","id":412,"geometry":{"type":"Point","coordinates":[87.371480601832104,26.437750233519637]},"properties":{"FID":412,"VDC_NAME":"Nocha","DIST_NAME":"Morang"}},{"type":"Feature","id":413,"geometry":{"type":"Point","coordinates":[87.361899886270976,26.421413124486548]},"properties":{"FID":413,"VDC_NAME":"Pokhariya","DIST_NAME":"Morang"}},{"type":"Feature","id":414,"geometry":{"type":"Point","coordinates":[87.342066402274099,26.411836677248175]},"properties":{"FID":414,"VDC_NAME":"Majhare","DIST_NAME":"Morang"}},{"type":"Feature","id":415,"geometry":{"type":"Point","coordinates":[87.305954587531176,26.382636883938687]},"properties":{"FID":415,"VDC_NAME":"Budhanagar","DIST_NAME":"Morang"}},{"type":"Feature","id":416,"geometry":{"type":"Point","coordinates":[87.42311685716038,26.446076419216638]},"properties":{"FID":416,"VDC_NAME":"Sorabhaj","DIST_NAME":"Morang"}},{"type":"Feature","id":417,"geometry":{"type":"Point","coordinates":[87.394144496645083,26.438736843486311]},"properties":{"FID":417,"VDC_NAME":"Amaibariyati","DIST_NAME":"Morang"}},{"type":"Feature","id":418,"geometry":{"type":"Point","coordinates":[87.480740445362756,26.483328881372699]},"properties":{"FID":418,"VDC_NAME":"Drabesh","DIST_NAME":"Morang"}},{"type":"Feature","id":419,"geometry":{"type":"Point","coordinates":[87.488377103787343,26.46367374520554]},"properties":{"FID":419,"VDC_NAME":"Rangeli","DIST_NAME":"Morang"}},{"type":"Feature","id":420,"geometry":{"type":"Point","coordinates":[87.547062583599541,26.453971604641367]},"properties":{"FID":420,"VDC_NAME":"Dainiya","DIST_NAME":"Morang"}},{"type":"Feature","id":421,"geometry":{"type":"Point","coordinates":[87.529960370363597,26.434958525748016]},"properties":{"FID":421,"VDC_NAME":"Amgachhi","DIST_NAME":"Morang"}},{"type":"Feature","id":422,"geometry":{"type":"Point","coordinates":[87.583741121892388,26.41555254943944]},"properties":{"FID":422,"VDC_NAME":"Baradanga","DIST_NAME":"Morang"}},{"type":"Feature","id":423,"geometry":{"type":"Point","coordinates":[87.635148365600116,26.429085325802077]},"properties":{"FID":423,"VDC_NAME":"Jhurkiya","DIST_NAME":"Morang"}},{"type":"Feature","id":424,"geometry":{"type":"Point","coordinates":[87.637703078780135,26.453226411813887]},"properties":{"FID":424,"VDC_NAME":"Mahadeva","DIST_NAME":"Morang"}},{"type":"Feature","id":425,"geometry":{"type":"Point","coordinates":[87.573608554046643,26.478508113465693]},"properties":{"FID":425,"VDC_NAME":"Govindapur","DIST_NAME":"Morang"}},{"type":"Feature","id":426,"geometry":{"type":"Point","coordinates":[87.608361457123692,26.539563420142997]},"properties":{"FID":426,"VDC_NAME":"Itahara","DIST_NAME":"Morang"}},{"type":"Feature","id":427,"geometry":{"type":"Point","coordinates":[87.611074623758554,26.616088864741187]},"properties":{"FID":427,"VDC_NAME":"Rajghat","DIST_NAME":"Morang"}},{"type":"Feature","id":428,"geometry":{"type":"Point","coordinates":[87.633866974138755,26.653973586886025]},"properties":{"FID":428,"VDC_NAME":"Urlabari","DIST_NAME":"Morang"}},{"type":"Feature","id":429,"geometry":{"type":"Point","coordinates":[87.543235788167749,26.604626835535441]},"properties":{"FID":429,"VDC_NAME":"Sanischare","DIST_NAME":"Morang"}},{"type":"Feature","id":430,"geometry":{"type":"Point","coordinates":[87.578959533259933,26.603880180534134]},"properties":{"FID":430,"VDC_NAME":"Pathari","DIST_NAME":"Morang"}},{"type":"Feature","id":431,"geometry":{"type":"Point","coordinates":[87.574276618828264,26.576334736705519]},"properties":{"FID":431,"VDC_NAME":"Hasandaha","DIST_NAME":"Morang"}},{"type":"Feature","id":432,"geometry":{"type":"Point","coordinates":[87.56638999321541,26.542390636445873]},"properties":{"FID":432,"VDC_NAME":"Amardaha","DIST_NAME":"Morang"}},{"type":"Feature","id":433,"geometry":{"type":"Point","coordinates":[87.534115926317327,26.493116016012891]},"properties":{"FID":433,"VDC_NAME":"Takuwa","DIST_NAME":"Morang"}},{"type":"Feature","id":434,"geometry":{"type":"Point","coordinates":[87.495323025756988,26.570977279381509]},"properties":{"FID":434,"VDC_NAME":"Keron","DIST_NAME":"Morang"}},{"type":"Feature","id":435,"geometry":{"type":"Point","coordinates":[87.659495944405307,26.725815621545223]},"properties":{"FID":435,"VDC_NAME":"Mathumalla","DIST_NAME":"Morang"}},{"type":"Feature","id":436,"geometry":{"type":"Point","coordinates":[87.542147777709999,26.748341906307871]},"properties":{"FID":436,"VDC_NAME":"Jante","DIST_NAME":"Morang"}},{"type":"Feature","id":437,"geometry":{"type":"Point","coordinates":[87.48969540955801,26.736721993440597]},"properties":{"FID":437,"VDC_NAME":"Letang","DIST_NAME":"Morang"}},{"type":"Feature","id":438,"geometry":{"type":"Point","coordinates":[87.405194657290622,26.771884195113046]},"properties":{"FID":438,"VDC_NAME":"Kerabari","DIST_NAME":"Morang"}},{"type":"Feature","id":439,"geometry":{"type":"Point","coordinates":[87.431046501175388,26.794082482254339]},"properties":{"FID":439,"VDC_NAME":"Bhogeteni","DIST_NAME":"Morang"}},{"type":"Feature","id":440,"geometry":{"type":"Point","coordinates":[87.375129324435306,26.828469226882589]},"properties":{"FID":440,"VDC_NAME":"Yangshila","DIST_NAME":"Morang"}},{"type":"Feature","id":441,"geometry":{"type":"Point","coordinates":[87.415376181442412,26.842795087481534]},"properties":{"FID":441,"VDC_NAME":"Patigaun","DIST_NAME":"Morang"}},{"type":"Feature","id":442,"geometry":{"type":"Point","coordinates":[87.475319257816636,26.864887491162733]},"properties":{"FID":442,"VDC_NAME":"Sinhadevi","DIST_NAME":"Morang"}},{"type":"Feature","id":443,"geometry":{"type":"Point","coordinates":[87.628597679671827,26.824655985718493]},"properties":{"FID":443,"VDC_NAME":"Remite Khola","DIST_NAME":"Morang"}},{"type":"Feature","id":444,"geometry":{"type":"Point","coordinates":[87.606293082538173,26.801025498998058]},"properties":{"FID":444,"VDC_NAME":"Tanti","DIST_NAME":"Morang"}},{"type":"Feature","id":445,"geometry":{"type":"Point","coordinates":[87.372044432887378,26.458208507049449]},"properties":{"FID":445,"VDC_NAME":"Sisabanibadahara","DIST_NAME":"Morang"}},{"type":"Feature","id":446,"geometry":{"type":"Point","coordinates":[87.352416576474866,26.459026164443003]},"properties":{"FID":446,"VDC_NAME":"Kadamaha","DIST_NAME":"Morang"}},{"type":"Feature","id":447,"geometry":{"type":"Point","coordinates":[87.539817972060462,26.842474219230439]},"properties":{"FID":447,"VDC_NAME":"Warangi","DIST_NAME":"Morang"}},{"type":"Feature","id":448,"geometry":{"type":"Point","coordinates":[86.7175221601305,27.825974798368861]},"properties":{"FID":448,"VDC_NAME":"Khumjung","DIST_NAME":"Solukhumbu"}},{"type":"Feature","id":449,"geometry":{"type":"Point","coordinates":[86.711458253237993,27.807158493531631]},"properties":{"FID":449,"VDC_NAME":"Namche","DIST_NAME":"Solukhumbu"}},{"type":"Feature","id":450,"geometry":{"type":"Point","coordinates":[86.71872415517339,27.69896873423869]},"properties":{"FID":450,"VDC_NAME":"Chaurikharka","DIST_NAME":"Solukhumbu"}},{"type":"Feature","id":451,"geometry":{"type":"Point","coordinates":[86.622770423172142,27.595589884449851]},"properties":{"FID":451,"VDC_NAME":"Takasindu","DIST_NAME":"Solukhumbu"}},{"type":"Feature","id":452,"geometry":{"type":"Point","coordinates":[86.547822189064675,27.581390899492419]},"properties":{"FID":452,"VDC_NAME":"Beni","DIST_NAME":"Solukhumbu"}},{"type":"Feature","id":453,"geometry":{"type":"Point","coordinates":[86.433243757190439,27.592066085684849]},"properties":{"FID":453,"VDC_NAME":"Bhakanje","DIST_NAME":"Solukhumbu"}},{"type":"Feature","id":454,"geometry":{"type":"Point","coordinates":[86.397993626144341,27.575667297092934]},"properties":{"FID":454,"VDC_NAME":"Chaulakharka(Waula)","DIST_NAME":"Solukhumbu"}},{"type":"Feature","id":455,"geometry":{"type":"Point","coordinates":[86.372119373344617,27.540841680796404]},"properties":{"FID":455,"VDC_NAME":"Goli","DIST_NAME":"Solukhumbu"}},{"type":"Feature","id":456,"geometry":{"type":"Point","coordinates":[86.508982052088868,27.476844497211175]},"properties":{"FID":456,"VDC_NAME":"Gora Khani","DIST_NAME":"Solukhumbu"}},{"type":"Feature","id":457,"geometry":{"type":"Point","coordinates":[86.578255827755243,27.460072778080871]},"properties":{"FID":457,"VDC_NAME":"Garma","DIST_NAME":"Solukhumbu"}},{"type":"Feature","id":458,"geometry":{"type":"Point","coordinates":[86.66419573680821,27.498620903918891]},"properties":{"FID":458,"VDC_NAME":"Kaku","DIST_NAME":"Solukhumbu"}},{"type":"Feature","id":459,"geometry":{"type":"Point","coordinates":[86.686271264980462,27.527444567519524]},"properties":{"FID":459,"VDC_NAME":"Bafa","DIST_NAME":"Solukhumbu"}},{"type":"Feature","id":460,"geometry":{"type":"Point","coordinates":[86.681516820704132,27.58573520450858]},"properties":{"FID":460,"VDC_NAME":"Jubing","DIST_NAME":"Solukhumbu"}},{"type":"Feature","id":461,"geometry":{"type":"Point","coordinates":[86.709111566211561,27.498892926248345]},"properties":{"FID":461,"VDC_NAME":"Baku","DIST_NAME":"Solukhumbu"}},{"type":"Feature","id":462,"geometry":{"type":"Point","coordinates":[86.794076211196455,27.502982276065154]},"properties":{"FID":462,"VDC_NAME":"Sautang","DIST_NAME":"Solukhumbu"}},{"type":"Feature","id":463,"geometry":{"type":"Point","coordinates":[86.824131622304094,27.513838702399596]},"properties":{"FID":463,"VDC_NAME":"Bung","DIST_NAME":"Solukhumbu"}},{"type":"Feature","id":464,"geometry":{"type":"Point","coordinates":[86.84722302575301,27.504215739573908]},"properties":{"FID":464,"VDC_NAME":"Gudel","DIST_NAME":"Solukhumbu"}},{"type":"Feature","id":465,"geometry":{"type":"Point","coordinates":[86.862517044150877,27.529699771375874]},"properties":{"FID":465,"VDC_NAME":"Chheskam","DIST_NAME":"Solukhumbu"}},{"type":"Feature","id":466,"geometry":{"type":"Point","coordinates":[86.696121794081478,27.459088014518272]},"properties":{"FID":466,"VDC_NAME":"Deusa","DIST_NAME":"Solukhumbu"}},{"type":"Feature","id":467,"geometry":{"type":"Point","coordinates":[86.692056649141364,27.436013044445247]},"properties":{"FID":467,"VDC_NAME":"Mukali","DIST_NAME":"Solukhumbu"}},{"type":"Feature","id":468,"geometry":{"type":"Point","coordinates":[86.742937704810686,27.441144697271852]},"properties":{"FID":468,"VDC_NAME":"Lokhim","DIST_NAME":"Solukhumbu"}},{"type":"Feature","id":469,"geometry":{"type":"Point","coordinates":[86.715414909471576,27.430320764305577]},"properties":{"FID":469,"VDC_NAME":"Jubu","DIST_NAME":"Solukhumbu"}},{"type":"Feature","id":470,"geometry":{"type":"Point","coordinates":[86.655517423284778,27.416192746867296]},"properties":{"FID":470,"VDC_NAME":"Kagel","DIST_NAME":"Solukhumbu"}},{"type":"Feature","id":471,"geometry":{"type":"Point","coordinates":[86.646278672917902,27.43987574850496]},"properties":{"FID":471,"VDC_NAME":"Nele","DIST_NAME":"Solukhumbu"}},{"type":"Feature","id":472,"geometry":{"type":"Point","coordinates":[86.619160789612806,27.410943241888333]},"properties":{"FID":472,"VDC_NAME":"Tingla","DIST_NAME":"Solukhumbu"}},{"type":"Feature","id":473,"geometry":{"type":"Point","coordinates":[86.624814140717035,27.389163500548136]},"properties":{"FID":473,"VDC_NAME":"Salyan","DIST_NAME":"Solukhumbu"}},{"type":"Feature","id":474,"geometry":{"type":"Point","coordinates":[86.660629315107485,27.389824337295408]},"properties":{"FID":474,"VDC_NAME":"Panchan","DIST_NAME":"Solukhumbu"}},{"type":"Feature","id":475,"geometry":{"type":"Point","coordinates":[86.648722466335698,27.358847747469724]},"properties":{"FID":475,"VDC_NAME":"Newa Beddhari","DIST_NAME":"Solukhumbu"}},{"type":"Feature","id":476,"geometry":{"type":"Point","coordinates":[86.633244670990564,27.353833382210212]},"properties":{"FID":476,"VDC_NAME":"Necha Batase","DIST_NAME":"Solukhumbu"}},{"type":"Feature","id":477,"geometry":{"type":"Point","coordinates":[86.527062893736456,27.428761391970284]},"properties":{"FID":477,"VDC_NAME":"Kerung","DIST_NAME":"Solukhumbu"}},{"type":"Feature","id":478,"geometry":{"type":"Point","coordinates":[86.484472747880886,27.457644358434493]},"properties":{"FID":478,"VDC_NAME":"Tapting","DIST_NAME":"Solukhumbu"}},{"type":"Feature","id":479,"geometry":{"type":"Point","coordinates":[86.5853791477968,27.507019881956239]},"properties":{"FID":479,"VDC_NAME":"Salleri","DIST_NAME":"Solukhumbu"}},{"type":"Feature","id":480,"geometry":{"type":"Point","coordinates":[86.75244860473947,27.490887786093879]},"properties":{"FID":480,"VDC_NAME":"Mabe (Parwai)","DIST_NAME":"Solukhumbu"}},{"type":"Feature","id":481,"geometry":{"type":"Point","coordinates":[86.238148553913788,27.354654448266558]},"properties":{"FID":481,"VDC_NAME":"Singhadevi","DIST_NAME":"Okhaldhunga"}},{"type":"Feature","id":482,"geometry":{"type":"Point","coordinates":[86.425933417216186,27.204559331289545]},"properties":{"FID":482,"VDC_NAME":"Thoksela","DIST_NAME":"Okhaldhunga"}},{"type":"Feature","id":483,"geometry":{"type":"Point","coordinates":[86.44532534675443,27.185940130610163]},"properties":{"FID":483,"VDC_NAME":"Thakle","DIST_NAME":"Okhaldhunga"}},{"type":"Feature","id":484,"geometry":{"type":"Point","coordinates":[86.491391938189054,27.220333363237557]},"properties":{"FID":484,"VDC_NAME":"Ubu","DIST_NAME":"Okhaldhunga"}},{"type":"Feature","id":485,"geometry":{"type":"Point","coordinates":[86.539877283930878,27.237708974608211]},"properties":{"FID":485,"VDC_NAME":"Moli","DIST_NAME":"Okhaldhunga"}},{"type":"Feature","id":486,"geometry":{"type":"Point","coordinates":[86.583297702832681,27.245716429616436]},"properties":{"FID":486,"VDC_NAME":"Taluwa","DIST_NAME":"Okhaldhunga"}},{"type":"Feature","id":487,"geometry":{"type":"Point","coordinates":[86.590017670556847,27.264588067013051]},"properties":{"FID":487,"VDC_NAME":"Thulachhap","DIST_NAME":"Okhaldhunga"}},{"type":"Feature","id":488,"geometry":{"type":"Point","coordinates":[86.635169841101174,27.269254206881499]},"properties":{"FID":488,"VDC_NAME":"Vadaure","DIST_NAME":"Okhaldhunga"}},{"type":"Feature","id":489,"geometry":{"type":"Point","coordinates":[86.654217230579832,27.288839454961703]},"properties":{"FID":489,"VDC_NAME":"Diyale","DIST_NAME":"Okhaldhunga"}},{"type":"Feature","id":490,"geometry":{"type":"Point","coordinates":[86.649921725991533,27.310785159783791]},"properties":{"FID":490,"VDC_NAME":"Pokhare","DIST_NAME":"Okhaldhunga"}},{"type":"Feature","id":491,"geometry":{"type":"Point","coordinates":[86.673629689120901,27.341096462884934]},"properties":{"FID":491,"VDC_NAME":"Kuimir","DIST_NAME":"Okhaldhunga"}},{"type":"Feature","id":492,"geometry":{"type":"Point","coordinates":[86.594074108454947,27.320338601423543]},"properties":{"FID":492,"VDC_NAME":"Ratmate","DIST_NAME":"Okhaldhunga"}},{"type":"Feature","id":493,"geometry":{"type":"Point","coordinates":[86.515699982943318,27.328007162145639]},"properties":{"FID":493,"VDC_NAME":"Barnalu","DIST_NAME":"Okhaldhunga"}},{"type":"Feature","id":494,"geometry":{"type":"Point","coordinates":[86.477107401341414,27.347926538794752]},"properties":{"FID":494,"VDC_NAME":"Baraneshwor(Barhuneshor)","DIST_NAME":"Okhaldhunga"}},{"type":"Feature","id":495,"geometry":{"type":"Point","coordinates":[86.457197693481817,27.337848520655427]},"properties":{"FID":495,"VDC_NAME":"Kuntadevi","DIST_NAME":"Okhaldhunga"}},{"type":"Feature","id":496,"geometry":{"type":"Point","coordinates":[86.425387135880101,27.345691872088992]},"properties":{"FID":496,"VDC_NAME":"Harkapur","DIST_NAME":"Okhaldhunga"}},{"type":"Feature","id":497,"geometry":{"type":"Point","coordinates":[86.474293696238192,27.312906992719661]},"properties":{"FID":497,"VDC_NAME":"Jyamire","DIST_NAME":"Okhaldhunga"}},{"type":"Feature","id":498,"geometry":{"type":"Point","coordinates":[86.404509112723929,27.320913357391532]},"properties":{"FID":498,"VDC_NAME":"Katunje","DIST_NAME":"Okhaldhunga"}},{"type":"Feature","id":499,"geometry":{"type":"Point","coordinates":[86.315217833952488,27.358104642655064]},"properties":{"FID":499,"VDC_NAME":"Bilandu","DIST_NAME":"Okhaldhunga"}},{"type":"Feature","id":500,"geometry":{"type":"Point","coordinates":[86.274795494509704,27.346626225034754]},"properties":{"FID":500,"VDC_NAME":"Raniban","DIST_NAME":"Okhaldhunga"}},{"type":"Feature","id":501,"geometry":{"type":"Point","coordinates":[86.344880740731355,27.242628144368666]},"properties":{"FID":501,"VDC_NAME":"Balakhu","DIST_NAME":"Okhaldhunga"}},{"type":"Feature","id":502,"geometry":{"type":"Point","coordinates":[86.236874914091743,27.345637312823442]},"properties":{"FID":502,"VDC_NAME":"Narmedeshwor","DIST_NAME":"Okhaldhunga"}},{"type":"Feature","id":503,"geometry":{"type":"Point","coordinates":[86.255836698044334,27.416319454577035]},"properties":{"FID":503,"VDC_NAME":"Tarkerabari","DIST_NAME":"Okhaldhunga"}},{"type":"Feature","id":504,"geometry":{"type":"Point","coordinates":[86.394114249441429,27.24214501923268]},"properties":{"FID":504,"VDC_NAME":"Sisneri","DIST_NAME":"Okhaldhunga"}},{"type":"Feature","id":505,"geometry":{"type":"Point","coordinates":[86.488231696891035,27.283662802260721]},"properties":{"FID":505,"VDC_NAME":"Salleri","DIST_NAME":"Okhaldhunga"}},{"type":"Feature","id":506,"geometry":{"type":"Point","coordinates":[86.471693151385864,27.290922964565482]},"properties":{"FID":506,"VDC_NAME":"Betini","DIST_NAME":"Okhaldhunga"}},{"type":"Feature","id":507,"geometry":{"type":"Point","coordinates":[86.582021979072465,27.299456664924094]},"properties":{"FID":507,"VDC_NAME":"Mamkha","DIST_NAME":"Okhaldhunga"}},{"type":"Feature","id":508,"geometry":{"type":"Point","coordinates":[86.51865317706563,27.297456268586132]},"properties":{"FID":508,"VDC_NAME":"Rumjatar","DIST_NAME":"Okhaldhunga"}},{"type":"Feature","id":509,"geometry":{"type":"Point","coordinates":[86.537991614085399,27.281804628336317]},"properties":{"FID":509,"VDC_NAME":"Andhari","DIST_NAME":"Okhaldhunga"}},{"type":"Feature","id":510,"geometry":{"type":"Point","coordinates":[86.386972605991275,27.287281844379493]},"properties":{"FID":510,"VDC_NAME":"Mulkharka","DIST_NAME":"Okhaldhunga"}},{"type":"Feature","id":511,"geometry":{"type":"Point","coordinates":[86.425259217289693,27.29247226698925]},"properties":{"FID":511,"VDC_NAME":"Chyanam","DIST_NAME":"Okhaldhunga"}},{"type":"Feature","id":512,"geometry":{"type":"Point","coordinates":[86.237491492579409,27.385598270987998]},"properties":{"FID":512,"VDC_NAME":"Yasam","DIST_NAME":"Okhaldhunga"}},{"type":"Feature","id":513,"geometry":{"type":"Point","coordinates":[86.363755841215379,27.397191478006732]},"properties":{"FID":513,"VDC_NAME":"Khijifalate","DIST_NAME":"Okhaldhunga"}},{"type":"Feature","id":514,"geometry":{"type":"Point","coordinates":[86.42824663755448,27.379910404900727]},"properties":{"FID":514,"VDC_NAME":"Shreechaur","DIST_NAME":"Okhaldhunga"}},{"type":"Feature","id":515,"geometry":{"type":"Point","coordinates":[86.491761061033344,27.361063520050436]},"properties":{"FID":515,"VDC_NAME":"Bigutar","DIST_NAME":"Okhaldhunga"}},{"type":"Feature","id":516,"geometry":{"type":"Point","coordinates":[86.516864753701782,27.399150387611598]},"properties":{"FID":516,"VDC_NAME":"Jantarkhani","DIST_NAME":"Okhaldhunga"}},{"type":"Feature","id":517,"geometry":{"type":"Point","coordinates":[86.431563793165481,27.415511647316123]},"properties":{"FID":517,"VDC_NAME":"Patle","DIST_NAME":"Okhaldhunga"}},{"type":"Feature","id":518,"geometry":{"type":"Point","coordinates":[86.357901060956351,27.512023960665999]},"properties":{"FID":518,"VDC_NAME":"Rawadolu","DIST_NAME":"Okhaldhunga"}},{"type":"Feature","id":519,"geometry":{"type":"Point","coordinates":[86.308295237012203,27.468687922925994]},"properties":{"FID":519,"VDC_NAME":"Khijichandeshwari","DIST_NAME":"Okhaldhunga"}},{"type":"Feature","id":520,"geometry":{"type":"Point","coordinates":[86.504448538237966,27.315968800840835]},"properties":{"FID":520,"VDC_NAME":"Okhaldhunga","DIST_NAME":"Okhaldhunga"}},{"type":"Feature","id":521,"geometry":{"type":"Point","coordinates":[86.515367749210043,27.225058059806429]},"properties":{"FID":521,"VDC_NAME":"Baksa","DIST_NAME":"Okhaldhunga"}},{"type":"Feature","id":522,"geometry":{"type":"Point","coordinates":[86.390215277693812,27.498392364980191]},"properties":{"FID":522,"VDC_NAME":"Bhussinga","DIST_NAME":"Okhaldhunga"}},{"type":"Feature","id":523,"geometry":{"type":"Point","coordinates":[86.392370373771769,27.381376069305475]},"properties":{"FID":523,"VDC_NAME":"Prapchan","DIST_NAME":"Okhaldhunga"}},{"type":"Feature","id":524,"geometry":{"type":"Point","coordinates":[86.451587155648213,27.218774153691697]},"properties":{"FID":524,"VDC_NAME":"Manebhajyang","DIST_NAME":"Okhaldhunga"}},{"type":"Feature","id":525,"geometry":{"type":"Point","coordinates":[86.421347812696411,27.233502438188054]},"properties":{"FID":525,"VDC_NAME":"Madhavpur","DIST_NAME":"Okhaldhunga"}},{"type":"Feature","id":526,"geometry":{"type":"Point","coordinates":[86.448317346753129,27.365710143466288]},"properties":{"FID":526,"VDC_NAME":"Rajadeep","DIST_NAME":"Okhaldhunga"}},{"type":"Feature","id":527,"geometry":{"type":"Point","coordinates":[86.2650553593121,27.307519436349367]},"properties":{"FID":527,"VDC_NAME":"Kalikadevi","DIST_NAME":"Okhaldhunga"}},{"type":"Feature","id":528,"geometry":{"type":"Point","coordinates":[86.303219461050162,27.326357564777766]},"properties":{"FID":528,"VDC_NAME":"Fulbari","DIST_NAME":"Okhaldhunga"}},{"type":"Feature","id":529,"geometry":{"type":"Point","coordinates":[86.329896542352401,27.305797060656289]},"properties":{"FID":529,"VDC_NAME":"Fediguth","DIST_NAME":"Okhaldhunga"}},{"type":"Feature","id":530,"geometry":{"type":"Point","coordinates":[86.277158939028709,27.387443549968282]},"properties":{"FID":530,"VDC_NAME":"Gamanamatar","DIST_NAME":"Okhaldhunga"}},{"type":"Feature","id":531,"geometry":{"type":"Point","coordinates":[86.260059544253409,27.284265173652045]},"properties":{"FID":531,"VDC_NAME":"Palapu","DIST_NAME":"Okhaldhunga"}},{"type":"Feature","id":532,"geometry":{"type":"Point","coordinates":[86.873286085667189,26.911982393608127]},"properties":{"FID":532,"VDC_NAME":"Pauwasere","DIST_NAME":"Khotang"}},{"type":"Feature","id":533,"geometry":{"type":"Point","coordinates":[86.891578059769529,26.938370516066982]},"properties":{"FID":533,"VDC_NAME":"Devisthan","DIST_NAME":"Khotang"}},{"type":"Feature","id":534,"geometry":{"type":"Point","coordinates":[86.788221481084747,26.93000101461422]},"properties":{"FID":534,"VDC_NAME":"Suntale","DIST_NAME":"Khotang"}},{"type":"Feature","id":535,"geometry":{"type":"Point","coordinates":[86.815828211881751,26.940864997942299]},"properties":{"FID":535,"VDC_NAME":"Saunechaur","DIST_NAME":"Khotang"}},{"type":"Feature","id":536,"geometry":{"type":"Point","coordinates":[86.858844239714131,26.952353035947056]},"properties":{"FID":536,"VDC_NAME":"Mauwabote","DIST_NAME":"Khotang"}},{"type":"Feature","id":537,"geometry":{"type":"Point","coordinates":[86.861918054429054,26.965087306975818]},"properties":{"FID":537,"VDC_NAME":"Diplung","DIST_NAME":"Khotang"}},{"type":"Feature","id":538,"geometry":{"type":"Point","coordinates":[86.882338674620996,26.981420872391766]},"properties":{"FID":538,"VDC_NAME":"Chisapani","DIST_NAME":"Khotang"}},{"type":"Feature","id":539,"geometry":{"type":"Point","coordinates":[86.923203536854658,26.99180460431262]},"properties":{"FID":539,"VDC_NAME":"Kaule","DIST_NAME":"Khotang"}},{"type":"Feature","id":540,"geometry":{"type":"Point","coordinates":[86.775891472292983,27.007563473291668]},"properties":{"FID":540,"VDC_NAME":"Lichki Ramche","DIST_NAME":"Khotang"}},{"type":"Feature","id":541,"geometry":{"type":"Point","coordinates":[86.798616799796491,26.995419203267886]},"properties":{"FID":541,"VDC_NAME":"Barahapokhari","DIST_NAME":"Khotang"}},{"type":"Feature","id":542,"geometry":{"type":"Point","coordinates":[86.842745669213798,27.034010094555981]},"properties":{"FID":542,"VDC_NAME":"Khotang Bazar","DIST_NAME":"Khotang"}},{"type":"Feature","id":543,"geometry":{"type":"Point","coordinates":[86.868109859591186,27.03867571157258]},"properties":{"FID":543,"VDC_NAME":"Badka Dipali","DIST_NAME":"Khotang"}},{"type":"Feature","id":544,"geometry":{"type":"Point","coordinates":[86.893237450983861,27.046949692744818]},"properties":{"FID":544,"VDC_NAME":"Sawakatahere","DIST_NAME":"Khotang"}},{"type":"Feature","id":545,"geometry":{"type":"Point","coordinates":[86.921256162757288,27.056240274510401]},"properties":{"FID":545,"VDC_NAME":"Linkuwa Pokhari","DIST_NAME":"Khotang"}},{"type":"Feature","id":546,"geometry":{"type":"Point","coordinates":[86.887918938965299,27.093145073898597]},"properties":{"FID":546,"VDC_NAME":"Woplukha","DIST_NAME":"Khotang"}},{"type":"Feature","id":547,"geometry":{"type":"Point","coordinates":[86.839540931493787,27.058770824571127]},"properties":{"FID":547,"VDC_NAME":"Indrayani Pokhari","DIST_NAME":"Khotang"}},{"type":"Feature","id":548,"geometry":{"type":"Point","coordinates":[86.797386843405377,27.049516106433998]},"properties":{"FID":548,"VDC_NAME":"Simpani","DIST_NAME":"Khotang"}},{"type":"Feature","id":549,"geometry":{"type":"Point","coordinates":[86.764469032855459,27.091148796210518]},"properties":{"FID":549,"VDC_NAME":"Chhorambu","DIST_NAME":"Khotang"}},{"type":"Feature","id":550,"geometry":{"type":"Point","coordinates":[86.73680100395552,27.088716418126182]},"properties":{"FID":550,"VDC_NAME":"Batase","DIST_NAME":"Khotang"}},{"type":"Feature","id":551,"geometry":{"type":"Point","coordinates":[86.707613072020479,27.142387271034806]},"properties":{"FID":551,"VDC_NAME":"Rajapani","DIST_NAME":"Khotang"}},{"type":"Feature","id":552,"geometry":{"type":"Point","coordinates":[86.779670707487639,27.141571008574886]},"properties":{"FID":552,"VDC_NAME":"Yamkhya","DIST_NAME":"Khotang"}},{"type":"Feature","id":553,"geometry":{"type":"Point","coordinates":[86.766337419151284,27.108198962099664]},"properties":{"FID":553,"VDC_NAME":"Dadagaun","DIST_NAME":"Khotang"}},{"type":"Feature","id":554,"geometry":{"type":"Point","coordinates":[86.846497291265052,27.080392618883764]},"properties":{"FID":554,"VDC_NAME":"Chiping","DIST_NAME":"Khotang"}},{"type":"Feature","id":555,"geometry":{"type":"Point","coordinates":[86.807798275288746,27.088697323893825]},"properties":{"FID":555,"VDC_NAME":"Santeswor Chhitapokhari","DIST_NAME":"Khotang"}},